[
  {
    "stop_id": 0,
    "stop_lat": 28.851958,
    "stop_lon": 77.088107,
    "stop_name": "Narela Terminal"
  },
  {
    "stop_id": 1,
    "stop_lat": 28.853311,
    "stop_lon": 77.088548,
    "stop_name": "Police Station Narela"
  },
  {
    "stop_id": 2,
    "stop_lat": 28.854965,
    "stop_lon": 77.089322,
    "stop_name": "Safiyabad Crossing"
  },
  {
    "stop_id": 3,
    "stop_lat": 28.857713,
    "stop_lon": 77.092846,
    "stop_name": "Ramdev Chowk / Pitori Johad"
  },
  {
    "stop_id": 4,
    "stop_lat": 28.857684,
    "stop_lon": 77.097117,
    "stop_name": "Narela A-6 / CPJ College"
  },
  {
    "stop_id": 5,
    "stop_lat": 28.854724,
    "stop_lon": 77.097933,
    "stop_name": "State Bank Of Allahbad"
  },
  {
    "stop_id": 6,
    "stop_lat": 28.851769,
    "stop_lon": 77.097906,
    "stop_name": "Sec A-9 Narela"
  },
  {
    "stop_id": 7,
    "stop_lat": 28.851771,
    "stop_lon": 77.097849,
    "stop_name": "Narela Pocket 13 / A-9"
  },
  {
    "stop_id": 8,
    "stop_lat": 28.848993,
    "stop_lon": 77.098485,
    "stop_name": "Narela Pocket 13 / A-6"
  },
  {
    "stop_id": 9,
    "stop_lat": 28.840804,
    "stop_lon": 77.10202,
    "stop_name": "Raja Harish Chandra Hospital"
  },
  {
    "stop_id": 10,
    "stop_lat": 28.837226,
    "stop_lon": 77.098578,
    "stop_name": "Kasturi Ram School"
  },
  {
    "stop_id": 11,
    "stop_lat": 28.83657,
    "stop_lon": 77.09201,
    "stop_name": "Munim Ji Ka Bagh"
  },
  {
    "stop_id": 12,
    "stop_lat": 28.838193,
    "stop_lon": 77.091456,
    "stop_name": "New Anaj Mandi"
  },
  {
    "stop_id": 13,
    "stop_lat": 28.840582,
    "stop_lon": 77.090589,
    "stop_name": "Kurani More"
  },
  {
    "stop_id": 14,
    "stop_lat": 28.837755,
    "stop_lon": 77.081097,
    "stop_name": "Prem Nagar Narela"
  },
  {
    "stop_id": 15,
    "stop_lat": 28.83657,
    "stop_lon": 77.079258,
    "stop_name": "Maharaja Agrassen School"
  },
  {
    "stop_id": 16,
    "stop_lat": 28.833186,
    "stop_lon": 77.077052,
    "stop_name": "Bharat Mata School"
  },
  {
    "stop_id": 17,
    "stop_lat": 28.825219,
    "stop_lon": 77.069668,
    "stop_name": "Kaushal Devi Netraheen Ashram"
  },
  {
    "stop_id": 18,
    "stop_lat": 28.819549,
    "stop_lon": 77.06355,
    "stop_name": "Sannoth Crossing / Ghoga Crossing"
  },
  {
    "stop_id": 19,
    "stop_lat": 28.815434,
    "stop_lon": 77.058213,
    "stop_name": "Delhi Jal Board Bawana"
  },
  {
    "stop_id": 20,
    "stop_lat": 28.811811,
    "stop_lon": 77.053975,
    "stop_name": "Jain Bekhunth Mandir"
  },
  {
    "stop_id": 21,
    "stop_lat": 28.806738,
    "stop_lon": 77.048163,
    "stop_name": "Bawana JJ Colony CRPF Camp"
  },
  {
    "stop_id": 23,
    "stop_lat": 28.758318,
    "stop_lon": 77.148305,
    "stop_name": "Swaroop Nagar GT Road"
  },
  {
    "stop_id": 24,
    "stop_lat": 28.75027,
    "stop_lon": 77.15075,
    "stop_name": "Libas Pur GT Road"
  },
  {
    "stop_id": 25,
    "stop_lat": 28.7402,
    "stop_lon": 77.154,
    "stop_name": "Sanjay Gandhi Transport Nagar"
  },
  {
    "stop_id": 26,
    "stop_lat": 28.735084,
    "stop_lon": 77.155874,
    "stop_name": "Mukarba Chowk"
  },
  {
    "stop_id": 27,
    "stop_lat": 28.731117,
    "stop_lon": 77.158967,
    "stop_name": "GTK Depot"
  },
  {
    "stop_id": 28,
    "stop_lat": 28.7257,
    "stop_lon": 77.163,
    "stop_name": "Jahangirpuri GT Road (Metro Station)"
  },
  {
    "stop_id": 29,
    "stop_lat": 28.721715,
    "stop_lon": 77.166162,
    "stop_name": "Mahindra Park"
  },
  {
    "stop_id": 30,
    "stop_lat": 28.7206,
    "stop_lon": 77.1671,
    "stop_name": "Sarai Pipal Thala"
  },
  {
    "stop_id": 31,
    "stop_lat": 28.717467,
    "stop_lon": 77.169917,
    "stop_name": "Adarsh Nagar Metro Station"
  },
  {
    "stop_id": 32,
    "stop_lat": 28.714415,
    "stop_lon": 77.172422,
    "stop_name": "New Sabzi Mandi"
  },
  {
    "stop_id": 33,
    "stop_lat": 28.7065332224,
    "stop_lon": 77.1792795875,
    "stop_name": "Azadpur Terminal (Bara Bagh Road)"
  },
  {
    "stop_id": 34,
    "stop_lat": 28.7017,
    "stop_lon": 77.1831,
    "stop_name": "Bara Bagh"
  },
  {
    "stop_id": 35,
    "stop_lat": 28.6995,
    "stop_lon": 77.1849,
    "stop_name": "Gujranwala Town"
  },
  {
    "stop_id": 36,
    "stop_lat": 28.6971,
    "stop_lon": 77.1869,
    "stop_name": "Telephone Exchange"
  },
  {
    "stop_id": 37,
    "stop_lat": 28.6954,
    "stop_lon": 77.1883,
    "stop_name": "State Bank Colony"
  },
  {
    "stop_id": 38,
    "stop_lat": 28.691,
    "stop_lon": 77.192,
    "stop_name": "Gurudwara Nanak Pyau"
  },
  {
    "stop_id": 39,
    "stop_lat": 28.6882666667,
    "stop_lon": 77.1937,
    "stop_name": "Rana Pratap Bagh"
  },
  {
    "stop_id": 40,
    "stop_lat": 28.6848,
    "stop_lon": 77.1963,
    "stop_name": "Gur Mandi"
  },
  {
    "stop_id": 41,
    "stop_lat": 28.682832,
    "stop_lon": 77.197614,
    "stop_name": "Roop Nagar / Shakti Nagar (GT Road)"
  },
  {
    "stop_id": 42,
    "stop_lat": 28.677617,
    "stop_lon": 77.201567,
    "stop_name": "Clock Tower"
  },
  {
    "stop_id": 43,
    "stop_lat": 28.6733,
    "stop_lon": 77.2018,
    "stop_name": "Roshnara Bagh"
  },
  {
    "stop_id": 44,
    "stop_lat": 28.669249,
    "stop_lon": 77.20455,
    "stop_name": "Roshnara Road"
  },
  {
    "stop_id": 45,
    "stop_lat": 28.667538,
    "stop_lon": 77.207439,
    "stop_name": "Ice Factory (Roshanara Road)"
  },
  {
    "stop_id": 46,
    "stop_lat": 28.667356,
    "stop_lon": 77.215047,
    "stop_name": "St Stephen Hospital"
  },
  {
    "stop_id": 47,
    "stop_lat": 28.666864,
    "stop_lon": 77.218926,
    "stop_name": "Tees Hazari Court"
  },
  {
    "stop_id": 48,
    "stop_lat": 28.668328,
    "stop_lon": 77.225017,
    "stop_name": "ISBT Nityanand Marg"
  },
  {
    "stop_id": 49,
    "stop_lat": 28.669469,
    "stop_lon": 77.228659,
    "stop_name": "ISBT Bridge"
  },
  {
    "stop_id": 50,
    "stop_lat": 28.673867,
    "stop_lon": 77.241633,
    "stop_name": "Metro Train Depot"
  },
  {
    "stop_id": 51,
    "stop_lat": 28.674383,
    "stop_lon": 77.243117,
    "stop_name": "Metro Train Depot"
  },
  {
    "stop_id": 52,
    "stop_lat": 28.6741,
    "stop_lon": 77.24775,
    "stop_name": "Shyam Giri Mandir"
  },
  {
    "stop_id": 53,
    "stop_lat": 28.6734543883,
    "stop_lon": 77.2519536225,
    "stop_name": "Shastri Park GT Road"
  },
  {
    "stop_id": 54,
    "stop_lat": 28.6726111562,
    "stop_lon": 77.257232612,
    "stop_name": "Shastri Park GT Road"
  },
  {
    "stop_id": 55,
    "stop_lat": 28.6712510847,
    "stop_lon": 77.2616747919,
    "stop_name": "Dharampura GT Road"
  },
  {
    "stop_id": 56,
    "stop_lat": 28.670783,
    "stop_lon": 77.265423,
    "stop_name": "Seelampur Metro Station"
  },
  {
    "stop_id": 57,
    "stop_lat": 28.672117,
    "stop_lon": 77.273467,
    "stop_name": "Seelam Pur Petrol Pump"
  },
  {
    "stop_id": 58,
    "stop_lat": 28.6725362922,
    "stop_lon": 77.2763248221,
    "stop_name": "Welcome Metro Station"
  },
  {
    "stop_id": 59,
    "stop_lat": 28.6736,
    "stop_lon": 77.283533,
    "stop_name": "Shahdara (Shyam Lal College)"
  },
  {
    "stop_id": 60,
    "stop_lat": 28.6759,
    "stop_lon": 77.2999,
    "stop_name": "Mansarovar Park Metro Station"
  },
  {
    "stop_id": 61,
    "stop_lat": 28.676067,
    "stop_lon": 77.30925,
    "stop_name": "Telephone Exchange"
  },
  {
    "stop_id": 62,
    "stop_lat": 28.67615,
    "stop_lon": 77.311883,
    "stop_name": "Dilshad Garden GT Road"
  },
  {
    "stop_id": 63,
    "stop_lat": 28.676518,
    "stop_lon": 77.321617,
    "stop_name": "Shahdara Border Circle"
  },
  {
    "stop_id": 64,
    "stop_lat": 28.666390619,
    "stop_lon": 77.3215430002,
    "stop_name": "Surya Nagar (Gazipur Road)"
  },
  {
    "stop_id": 65,
    "stop_lat": 28.662479,
    "stop_lon": 77.320324,
    "stop_name": "Ram Prastha Temple"
  },
  {
    "stop_id": 66,
    "stop_lat": 28.6608,
    "stop_lon": 77.3202,
    "stop_name": "Ram Prastha Crossing"
  },
  {
    "stop_id": 67,
    "stop_lat": 28.647061,
    "stop_lon": 77.317903,
    "stop_name": "Anand Vihar ISBT Main Road"
  },
  {
    "stop_id": 69,
    "stop_lat": 28.618288,
    "stop_lon": 76.930672,
    "stop_name": "Kair Depot"
  },
  {
    "stop_id": 70,
    "stop_lat": 28.6082685799,
    "stop_lon": 76.9447822575,
    "stop_name": "Mitraon Village (Dhansa Road)"
  },
  {
    "stop_id": 71,
    "stop_lat": 28.607199,
    "stop_lon": 76.939964,
    "stop_name": "Mitraon School"
  },
  {
    "stop_id": 72,
    "stop_lat": 28.6042512215,
    "stop_lon": 76.9324376476,
    "stop_name": "Surehra Crossing"
  },
  {
    "stop_id": 73,
    "stop_lat": 28.6001675792,
    "stop_lon": 76.9161323561,
    "stop_name": "Rawta Crossing (Dhansa Road)"
  },
  {
    "stop_id": 74,
    "stop_lat": 28.5948401029,
    "stop_lon": 76.9153475629,
    "stop_name": "Jaffarpur Kalan RTRM Hospital"
  },
  {
    "stop_id": 75,
    "stop_lat": 28.578394,
    "stop_lon": 76.909982,
    "stop_name": "Samaspur Khalsa"
  },
  {
    "stop_id": 76,
    "stop_lat": 28.6880691747,
    "stop_lon": 76.9654397279,
    "stop_name": "Tikri Border Metro Station"
  },
  {
    "stop_id": 77,
    "stop_lat": 28.6875,
    "stop_lon": 76.9708,
    "stop_name": "Tikari Village"
  },
  {
    "stop_id": 78,
    "stop_lat": 28.6869,
    "stop_lon": 76.9783,
    "stop_name": "Tikri Hospital"
  },
  {
    "stop_id": 79,
    "stop_lat": 28.686817,
    "stop_lon": 76.979933,
    "stop_name": "Tikri Piyau / Azad Hind Gram"
  },
  {
    "stop_id": 80,
    "stop_lat": 28.686267,
    "stop_lon": 76.986533,
    "stop_name": "Indian Oil Corporation"
  },
  {
    "stop_id": 81,
    "stop_lat": 28.686112,
    "stop_lon": 76.994467,
    "stop_name": "Ghevra Crossing (Kanjhawala Road)"
  },
  {
    "stop_id": 82,
    "stop_lat": 28.69285,
    "stop_lon": 76.993943,
    "stop_name": "FCI Ghevra"
  },
  {
    "stop_id": 83,
    "stop_lat": 28.696524,
    "stop_lon": 76.997956,
    "stop_name": "Ghevra Village"
  },
  {
    "stop_id": 84,
    "stop_lat": 28.707239,
    "stop_lon": 77.001132,
    "stop_name": "Sir Chhotu Ram Polytechnic"
  },
  {
    "stop_id": 85,
    "stop_lat": 28.7141664299,
    "stop_lon": 77.0031881386,
    "stop_name": "Haryana Shakti School Kanjhawla"
  },
  {
    "stop_id": 86,
    "stop_lat": 28.723483,
    "stop_lon": 77.004474,
    "stop_name": "Desu Sub Station"
  },
  {
    "stop_id": 88,
    "stop_lat": 28.733592,
    "stop_lon": 77.004502,
    "stop_name": "Kanjhawala Village"
  },
  {
    "stop_id": 89,
    "stop_lat": 28.738005,
    "stop_lon": 77.007551,
    "stop_name": "Kanjhawla Chowk"
  },
  {
    "stop_id": 90,
    "stop_lat": 28.738824,
    "stop_lon": 77.008263,
    "stop_name": "Kanjhawla School"
  },
  {
    "stop_id": 91,
    "stop_lat": 28.751435,
    "stop_lon": 77.014409,
    "stop_name": "Chandpur Kalan Crossing"
  },
  {
    "stop_id": 92,
    "stop_lat": 28.75137,
    "stop_lon": 77.00975,
    "stop_name": "Chand Pur Village"
  },
  {
    "stop_id": 93,
    "stop_lat": 28.75329,
    "stop_lon": 77.00775,
    "stop_name": "Chand Pur Village"
  },
  {
    "stop_id": 94,
    "stop_lat": 28.75895,
    "stop_lon": 76.99894,
    "stop_name": "Chand Pur Majra School"
  },
  {
    "stop_id": 95,
    "stop_lat": 28.76899,
    "stop_lon": 76.99852,
    "stop_name": "Majra Dabas Village"
  },
  {
    "stop_id": 96,
    "stop_lat": 28.7666506423,
    "stop_lon": 77.0164091281,
    "stop_name": "Prem Piyau"
  },
  {
    "stop_id": 97,
    "stop_lat": 28.779779,
    "stop_lon": 77.021947,
    "stop_name": "Shri Krishna Gaushala"
  },
  {
    "stop_id": 98,
    "stop_lat": 28.7850261948,
    "stop_lon": 77.0238674277,
    "stop_name": "Bajit Pur Crossing"
  },
  {
    "stop_id": 99,
    "stop_lat": 28.787599,
    "stop_lon": 77.025648,
    "stop_name": "Krishna Vihar"
  },
  {
    "stop_id": 100,
    "stop_lat": 28.794529,
    "stop_lon": 77.029967,
    "stop_name": "Ishwar Colony"
  },
  {
    "stop_id": 101,
    "stop_lat": 28.797939,
    "stop_lon": 77.031709,
    "stop_name": "Panchayat Ghar"
  },
  {
    "stop_id": 102,
    "stop_lat": 28.797795,
    "stop_lon": 77.034329,
    "stop_name": "Primary School"
  },
  {
    "stop_id": 103,
    "stop_lat": 28.800379,
    "stop_lon": 77.036058,
    "stop_name": "Bawana Village Chowk"
  },
  {
    "stop_id": 104,
    "stop_lat": 28.74539,
    "stop_lon": 77.13727,
    "stop_name": "Badli Railway Staion"
  },
  {
    "stop_id": 106,
    "stop_lat": 28.743133,
    "stop_lon": 77.146286,
    "stop_name": "Prem Nagar"
  },
  {
    "stop_id": 107,
    "stop_lat": 28.6676101,
    "stop_lon": 77.210806,
    "stop_name": "Ice Factory (Nityanand Marg)"
  },
  {
    "stop_id": 108,
    "stop_lat": 28.665616,
    "stop_lon": 77.230079,
    "stop_name": "ISBT Kashmere Gate (Lothian Road)"
  },
  {
    "stop_id": 109,
    "stop_lat": 28.665677,
    "stop_lon": 77.230238,
    "stop_name": "Guru Govind Singh University (Kashmere Gate)"
  },
  {
    "stop_id": 110,
    "stop_lat": 28.661738,
    "stop_lon": 77.235311,
    "stop_name": "GPO"
  },
  {
    "stop_id": 111,
    "stop_lat": 28.660050681,
    "stop_lon": 77.2278921212,
    "stop_name": "Old Delhi Railway Station (T)"
  },
  {
    "stop_id": 112,
    "stop_lat": 28.67409,
    "stop_lon": 77.286865,
    "stop_name": "Shahdara Terminal"
  },
  {
    "stop_id": 113,
    "stop_lat": 28.6730434412,
    "stop_lon": 77.2827487465,
    "stop_name": "Shahdara (Shyam Lal College)"
  },
  {
    "stop_id": 114,
    "stop_lat": 28.6704,
    "stop_lon": 77.2809,
    "stop_name": "Kanti Nagar Extension"
  },
  {
    "stop_id": 115,
    "stop_lat": 28.66785,
    "stop_lon": 77.28225,
    "stop_name": "Jharkhandi"
  },
  {
    "stop_id": 116,
    "stop_lat": 28.666167,
    "stop_lon": 77.283917,
    "stop_name": "East Azad Nagar"
  },
  {
    "stop_id": 117,
    "stop_lat": 28.663502,
    "stop_lon": 77.285917,
    "stop_name": "Swaran Cinema"
  },
  {
    "stop_id": 118,
    "stop_lat": 28.661,
    "stop_lon": 77.2878,
    "stop_name": "Krishna Nagar A Block"
  },
  {
    "stop_id": 119,
    "stop_lat": 28.6582,
    "stop_lon": 77.29,
    "stop_name": "Hans Apartment"
  },
  {
    "stop_id": 120,
    "stop_lat": 28.6564,
    "stop_lon": 77.2915,
    "stop_name": "Arjun Nagar"
  },
  {
    "stop_id": 121,
    "stop_lat": 28.654,
    "stop_lon": 77.2925,
    "stop_name": "Radheypuri"
  },
  {
    "stop_id": 122,
    "stop_lat": 28.651637,
    "stop_lon": 77.293123,
    "stop_name": "Jagatpuri  A Block"
  },
  {
    "stop_id": 123,
    "stop_lat": 28.648036,
    "stop_lon": 77.295529,
    "stop_name": "Jagatpuri F-Block"
  },
  {
    "stop_id": 124,
    "stop_lat": 28.6455,
    "stop_lon": 77.2979,
    "stop_name": "Gagan Vihar"
  },
  {
    "stop_id": 125,
    "stop_lat": 28.642867,
    "stop_lon": 77.29725,
    "stop_name": "Karkardooma Xing"
  },
  {
    "stop_id": 126,
    "stop_lat": 28.64215,
    "stop_lon": 77.29625,
    "stop_name": "New Rajdhani Enclave"
  },
  {
    "stop_id": 127,
    "stop_lat": 28.639333,
    "stop_lon": 77.292417,
    "stop_name": "Preet Vihar"
  },
  {
    "stop_id": 128,
    "stop_lat": 28.636783,
    "stop_lon": 77.287683,
    "stop_name": "Nirman Vihar"
  },
  {
    "stop_id": 129,
    "stop_lat": 28.635367,
    "stop_lon": 77.28495,
    "stop_name": "Shakarpur Crossing"
  },
  {
    "stop_id": 130,
    "stop_lat": 28.633394,
    "stop_lon": 77.281942,
    "stop_name": "Shakarpur"
  },
  {
    "stop_id": 131,
    "stop_lat": 28.6313,
    "stop_lon": 77.2789,
    "stop_name": "Laxmi Nagar"
  },
  {
    "stop_id": 132,
    "stop_lat": 28.628033,
    "stop_lon": 77.260933,
    "stop_name": "Rainy Well"
  },
  {
    "stop_id": 133,
    "stop_lat": 28.62795,
    "stop_lon": 77.25235,
    "stop_name": "Delhi Secretariat"
  },
  {
    "stop_id": 134,
    "stop_lat": 28.627967,
    "stop_lon": 77.244433,
    "stop_name": "ITO"
  },
  {
    "stop_id": 135,
    "stop_lat": 28.6253,
    "stop_lon": 77.2387,
    "stop_name": "Tilak Bridge"
  },
  {
    "stop_id": 136,
    "stop_lat": 28.625633,
    "stop_lon": 77.234,
    "stop_name": "Mandi House"
  },
  {
    "stop_id": 137,
    "stop_lat": 28.625035,
    "stop_lon": 77.230571,
    "stop_name": "Mandi House"
  },
  {
    "stop_id": 138,
    "stop_lat": 28.623228,
    "stop_lon": 77.226725,
    "stop_name": "Kasturba Gandhi Road Crossing"
  },
  {
    "stop_id": 139,
    "stop_lat": 28.621,
    "stop_lon": 77.2215,
    "stop_name": "Firoz Shah Road"
  },
  {
    "stop_id": 140,
    "stop_lat": 28.619225,
    "stop_lon": 77.217521,
    "stop_name": "Le Meridian Hotel / Rajendra Prasad Road"
  },
  {
    "stop_id": 141,
    "stop_lat": 28.616983,
    "stop_lon": 77.2137,
    "stop_name": "Krishi Bhawan"
  },
  {
    "stop_id": 142,
    "stop_lat": 28.618035,
    "stop_lon": 77.210453,
    "stop_name": "Red Cross Road"
  },
  {
    "stop_id": 143,
    "stop_lat": 28.62065,
    "stop_lon": 77.2098,
    "stop_name": "Aakashwani Bhawan (Imtiyaz Ali Road)"
  },
  {
    "stop_id": 144,
    "stop_lat": 28.6209,
    "stop_lon": 77.2073,
    "stop_name": "Gurudwara Rakab Ganj Road"
  },
  {
    "stop_id": 145,
    "stop_lat": 28.617383,
    "stop_lon": 77.20395,
    "stop_name": "Kendriya Terminal (Church Road)"
  },
  {
    "stop_id": 146,
    "stop_lat": 28.614614,
    "stop_lon": 76.978024,
    "stop_name": "Najafgarh Terminal"
  },
  {
    "stop_id": 147,
    "stop_lat": 28.613617,
    "stop_lon": 76.979717,
    "stop_name": "Jharoda Crossing/Nazafgarh Terminal"
  },
  {
    "stop_id": 148,
    "stop_lat": 28.6144807426,
    "stop_lon": 76.9810620215,
    "stop_name": "Jharoda Crossing"
  },
  {
    "stop_id": 149,
    "stop_lat": 28.61415,
    "stop_lon": 76.985217,
    "stop_name": "Health Centre"
  },
  {
    "stop_id": 150,
    "stop_lat": 28.612627,
    "stop_lon": 76.986253,
    "stop_name": "NajafGarh Delhi Gate"
  },
  {
    "stop_id": 151,
    "stop_lat": 28.612622,
    "stop_lon": 76.99151,
    "stop_name": "Tuda Mandi"
  },
  {
    "stop_id": 154,
    "stop_lat": 28.614667,
    "stop_lon": 77.0034,
    "stop_name": "Nangli Sakrawati"
  },
  {
    "stop_id": 155,
    "stop_lat": 28.6163352571,
    "stop_lon": 77.0073543379,
    "stop_name": "Nangli Sakrawati Crossing"
  },
  {
    "stop_id": 156,
    "stop_lat": 28.618,
    "stop_lon": 77.012067,
    "stop_name": "Arjun Park"
  },
  {
    "stop_id": 157,
    "stop_lat": 28.619105,
    "stop_lon": 77.015167,
    "stop_name": "Chhathh Ghat Park"
  },
  {
    "stop_id": 158,
    "stop_lat": 28.620133,
    "stop_lon": 77.01795,
    "stop_name": "Nangli Dairy"
  },
  {
    "stop_id": 159,
    "stop_lat": 28.6202099508,
    "stop_lon": 77.0241265593,
    "stop_name": "Kakrola Bridge"
  },
  {
    "stop_id": 160,
    "stop_lat": 28.6191819992,
    "stop_lon": 77.0292680535,
    "stop_name": "Kakrola More"
  },
  {
    "stop_id": 161,
    "stop_lat": 28.6191187419,
    "stop_lon": 77.0317966191,
    "stop_name": "Kakrola More"
  },
  {
    "stop_id": 162,
    "stop_lat": 28.6193619889,
    "stop_lon": 77.0331014179,
    "stop_name": "Dwarka More Metro Station (Sewak Park)"
  },
  {
    "stop_id": 163,
    "stop_lat": 28.6199180153,
    "stop_lon": 77.0365693722,
    "stop_name": "Rama Park"
  },
  {
    "stop_id": 164,
    "stop_lat": 28.62029,
    "stop_lon": 77.039178,
    "stop_name": "Mohan Garden"
  },
  {
    "stop_id": 165,
    "stop_lat": 28.6203564,
    "stop_lon": 77.0449947,
    "stop_name": "Nawada Gaon"
  },
  {
    "stop_id": 166,
    "stop_lat": 28.620876,
    "stop_lon": 77.049338,
    "stop_name": "Kiran Garden"
  },
  {
    "stop_id": 167,
    "stop_lat": 28.621124,
    "stop_lon": 77.051543,
    "stop_name": "Om Vihar"
  },
  {
    "stop_id": 168,
    "stop_lat": 28.621946,
    "stop_lon": 77.056321,
    "stop_name": "Prem Nagar"
  },
  {
    "stop_id": 169,
    "stop_lat": 28.623017,
    "stop_lon": 77.06031,
    "stop_name": "Uttam Nagar"
  },
  {
    "stop_id": 170,
    "stop_lat": 28.624813,
    "stop_lon": 77.067696,
    "stop_name": "Uttam Nagar / A1 Janak Puri"
  },
  {
    "stop_id": 171,
    "stop_lat": 28.621617,
    "stop_lon": 77.069969,
    "stop_name": "Tilak Pul"
  },
  {
    "stop_id": 172,
    "stop_lat": 28.620041,
    "stop_lon": 77.073165,
    "stop_name": "Jivan park"
  },
  {
    "stop_id": 173,
    "stop_lat": 28.618239,
    "stop_lon": 77.076935,
    "stop_name": "C-1 Janak Puri"
  },
  {
    "stop_id": 175,
    "stop_lat": 28.616152,
    "stop_lon": 77.081383,
    "stop_name": "C-2 Janak Puri"
  },
  {
    "stop_id": 176,
    "stop_lat": 28.614365,
    "stop_lon": 77.085484,
    "stop_name": "C2D Janak Puri"
  },
  {
    "stop_id": 177,
    "stop_lat": 28.61305,
    "stop_lon": 77.088391,
    "stop_name": "Dabri Crossing (Pankha Road)"
  },
  {
    "stop_id": 178,
    "stop_lat": 28.611026,
    "stop_lon": 77.093012,
    "stop_name": "Janak Cinema"
  },
  {
    "stop_id": 179,
    "stop_lat": 28.610049,
    "stop_lon": 77.095367,
    "stop_name": "Desu Colony Janak Puri"
  },
  {
    "stop_id": 180,
    "stop_lat": 28.609265,
    "stop_lon": 77.100931,
    "stop_name": "SagarPur Vashisht park"
  },
  {
    "stop_id": 181,
    "stop_lat": 28.61096,
    "stop_lon": 77.103583,
    "stop_name": "D Block Janak Puri"
  },
  {
    "stop_id": 182,
    "stop_lat": 28.614,
    "stop_lon": 77.1062,
    "stop_name": "Lajwanti Garden"
  },
  {
    "stop_id": 183,
    "stop_lat": 28.61313,
    "stop_lon": 77.109679,
    "stop_name": "Lajwanti Garden (Carriappa Marg)"
  },
  {
    "stop_id": 184,
    "stop_lat": 28.6107,
    "stop_lon": 77.1139,
    "stop_name": "Janak Setu"
  },
  {
    "stop_id": 185,
    "stop_lat": 28.606783,
    "stop_lon": 77.123367,
    "stop_name": "Supply Depot"
  },
  {
    "stop_id": 186,
    "stop_lat": 28.604833,
    "stop_lon": 77.128283,
    "stop_name": "Kirbi Place"
  },
  {
    "stop_id": 187,
    "stop_lat": 28.602817,
    "stop_lon": 77.133517,
    "stop_name": "Thimiyan Park"
  },
  {
    "stop_id": 188,
    "stop_lat": 28.600317,
    "stop_lon": 77.139733,
    "stop_name": "S O Flats Carriappa Marg"
  },
  {
    "stop_id": 189,
    "stop_lat": 28.596167,
    "stop_lon": 77.1504,
    "stop_name": "R R Line"
  },
  {
    "stop_id": 190,
    "stop_lat": 28.592967,
    "stop_lon": 77.158483,
    "stop_name": "Golf Club"
  },
  {
    "stop_id": 191,
    "stop_lat": 28.592987,
    "stop_lon": 77.162865,
    "stop_name": "Dhaula Kuan"
  },
  {
    "stop_id": 192,
    "stop_lat": 28.704301,
    "stop_lon": 77.21131,
    "stop_name": "BBM Cluster Depot"
  },
  {
    "stop_id": 193,
    "stop_lat": 28.702162,
    "stop_lon": 77.209581,
    "stop_name": "Sewa Kutir"
  },
  {
    "stop_id": 194,
    "stop_lat": 28.698158,
    "stop_lon": 77.207636,
    "stop_name": "GTB Nagar / Haqiqat Nagar"
  },
  {
    "stop_id": 195,
    "stop_lat": 28.696197,
    "stop_lon": 77.21214,
    "stop_name": "INS Hostel"
  },
  {
    "stop_id": 196,
    "stop_lat": 28.695022,
    "stop_lon": 77.215318,
    "stop_name": "Vishwa Vidyalaya Metro Station"
  },
  {
    "stop_id": 197,
    "stop_lat": 28.69382,
    "stop_lon": 77.218624,
    "stop_name": "Mall Road"
  },
  {
    "stop_id": 198,
    "stop_lat": 28.69714,
    "stop_lon": 77.220359,
    "stop_name": "Banarsi Daas Estate Timarpur"
  },
  {
    "stop_id": 199,
    "stop_lat": 28.701025,
    "stop_lon": 77.22127,
    "stop_name": "Timarpur"
  },
  {
    "stop_id": 200,
    "stop_lat": 28.7054,
    "stop_lon": 77.2231666667,
    "stop_name": "Balak Ram Hospital"
  },
  {
    "stop_id": 201,
    "stop_lat": 28.706947,
    "stop_lon": 77.224038,
    "stop_name": "Police Station Timarpur"
  },
  {
    "stop_id": 202,
    "stop_lat": 28.709086,
    "stop_lon": 77.22626,
    "stop_name": "Nehru Vihar Crossing"
  },
  {
    "stop_id": 203,
    "stop_lat": 28.711529,
    "stop_lon": 77.228752,
    "stop_name": "Wazirabad Crossing"
  },
  {
    "stop_id": 204,
    "stop_lat": 28.710233,
    "stop_lon": 77.241367,
    "stop_name": "Gurudwara Nanak Sar"
  },
  {
    "stop_id": 205,
    "stop_lat": 28.7189,
    "stop_lon": 77.24325,
    "stop_name": "Pusta No 1 Sonia Vihar"
  },
  {
    "stop_id": 206,
    "stop_lat": 28.721517,
    "stop_lon": 77.243867,
    "stop_name": "Pusta No 2 Sonia Vihar"
  },
  {
    "stop_id": 207,
    "stop_lat": 28.725583,
    "stop_lon": 77.2448,
    "stop_name": "Pusta No 3 Sonia Vihar"
  },
  {
    "stop_id": 208,
    "stop_lat": 28.730183,
    "stop_lon": 77.24575,
    "stop_name": "Gatta Factory Sonia Vihar"
  },
  {
    "stop_id": 209,
    "stop_lat": 28.7324,
    "stop_lon": 77.246233,
    "stop_name": "Sonia Vihar"
  },
  {
    "stop_id": 210,
    "stop_lat": 28.734583,
    "stop_lon": 77.246633,
    "stop_name": "Pusta No 5 Sonia Vihar"
  },
  {
    "stop_id": 211,
    "stop_lat": 28.739367,
    "stop_lon": 77.24745,
    "stop_name": "Check Post"
  },
  {
    "stop_id": 212,
    "stop_lat": 28.74245,
    "stop_lon": 77.246567,
    "stop_name": "Annpurna Mandir"
  },
  {
    "stop_id": 213,
    "stop_lat": 28.750167,
    "stop_lon": 77.24385,
    "stop_name": "Sabhapur More"
  },
  {
    "stop_id": 214,
    "stop_lat": 28.754767,
    "stop_lon": 77.24325,
    "stop_name": "Chauhan Patti (Terminal)"
  },
  {
    "stop_id": 215,
    "stop_lat": 28.578409,
    "stop_lon": 77.058932,
    "stop_name": "NHAI Building/ Dwarka Sec-10 Metro Station"
  },
  {
    "stop_id": 216,
    "stop_lat": 28.578591,
    "stop_lon": 77.054908,
    "stop_name": "Dwarka Sec-19 Modern School"
  },
  {
    "stop_id": 217,
    "stop_lat": 28.574383,
    "stop_lon": 77.05115,
    "stop_name": "Amrohi More"
  },
  {
    "stop_id": 218,
    "stop_lat": 28.573412,
    "stop_lon": 77.048418,
    "stop_name": "St Marry School"
  },
  {
    "stop_id": 219,
    "stop_lat": 28.577292,
    "stop_lon": 77.035195,
    "stop_name": "Police Post"
  },
  {
    "stop_id": 220,
    "stop_lat": 28.578247,
    "stop_lon": 77.02915,
    "stop_name": "Qutub Vihar Phase-I Kikar Stand"
  },
  {
    "stop_id": 221,
    "stop_lat": 28.57905,
    "stop_lon": 77.024348,
    "stop_name": "Jhankar Crossing"
  },
  {
    "stop_id": 222,
    "stop_lat": 28.579766,
    "stop_lon": 77.021478,
    "stop_name": "Goyla Dairy"
  },
  {
    "stop_id": 223,
    "stop_lat": 28.580346,
    "stop_lon": 77.019327,
    "stop_name": "Nehru Bus Stand Goyla Dairy"
  },
  {
    "stop_id": 224,
    "stop_lat": 28.581816,
    "stop_lon": 77.015072,
    "stop_name": "St Thomas School Goyla Vihar"
  },
  {
    "stop_id": 225,
    "stop_lat": 28.58327,
    "stop_lon": 77.011534,
    "stop_name": "Taj Pur More"
  },
  {
    "stop_id": 226,
    "stop_lat": 28.587476,
    "stop_lon": 77.008636,
    "stop_name": "Goyla Village"
  },
  {
    "stop_id": 227,
    "stop_lat": 28.591403,
    "stop_lon": 77.000404,
    "stop_name": "Shyam Vihar"
  },
  {
    "stop_id": 228,
    "stop_lat": 28.591721,
    "stop_lon": 76.992877,
    "stop_name": "Goela Dairy Crossing"
  },
  {
    "stop_id": 229,
    "stop_lat": 28.593389,
    "stop_lon": 76.991941,
    "stop_name": "Deenpur Village"
  },
  {
    "stop_id": 230,
    "stop_lat": 28.596621,
    "stop_lon": 76.990298,
    "stop_name": "Durga Vihar"
  },
  {
    "stop_id": 231,
    "stop_lat": 28.600768,
    "stop_lon": 76.988661,
    "stop_name": "BDO Office"
  },
  {
    "stop_id": 232,
    "stop_lat": 28.60799,
    "stop_lon": 76.985536,
    "stop_name": "Chhawla Stand Najafgarh"
  },
  {
    "stop_id": 233,
    "stop_lat": 28.6103186141,
    "stop_lon": 76.9813376579,
    "stop_name": "Police Station NajafGarh"
  },
  {
    "stop_id": 235,
    "stop_lat": 28.617676,
    "stop_lon": 76.984284,
    "stop_name": "Dichau Chowk"
  },
  {
    "stop_id": 236,
    "stop_lat": 28.621747,
    "stop_lon": 76.98804,
    "stop_name": "Udaseen Ashram"
  },
  {
    "stop_id": 237,
    "stop_lat": 28.625259,
    "stop_lon": 76.992196,
    "stop_name": "Nirmal Vihar"
  },
  {
    "stop_id": 238,
    "stop_lat": 28.629304,
    "stop_lon": 76.997733,
    "stop_name": "Dichau Kalan Depot"
  },
  {
    "stop_id": 239,
    "stop_lat": 28.707525,
    "stop_lon": 77.177797,
    "stop_name": "Azadpur Terminal"
  },
  {
    "stop_id": 240,
    "stop_lat": 28.7139,
    "stop_lon": 77.1725,
    "stop_name": "New Sabzi Mandi"
  },
  {
    "stop_id": 241,
    "stop_lat": 28.715917,
    "stop_lon": 77.170867,
    "stop_name": "Adarsh Nagar / Bharola Village"
  },
  {
    "stop_id": 242,
    "stop_lat": 28.720417,
    "stop_lon": 77.166983,
    "stop_name": "Sarai Peepal Thala"
  },
  {
    "stop_id": 243,
    "stop_lat": 28.7215333333,
    "stop_lon": 77.166,
    "stop_name": "Mahindra Park"
  },
  {
    "stop_id": 244,
    "stop_lat": 28.7251,
    "stop_lon": 77.163217,
    "stop_name": "Jahangir Puri GT Road"
  },
  {
    "stop_id": 245,
    "stop_lat": 28.7273,
    "stop_lon": 77.161583,
    "stop_name": "Jahangir Puri Metro Station"
  },
  {
    "stop_id": 246,
    "stop_lat": 28.731183,
    "stop_lon": 77.158617,
    "stop_name": "GTK Depot"
  },
  {
    "stop_id": 247,
    "stop_lat": 28.734723,
    "stop_lon": 77.155831,
    "stop_name": "Mukarba Chowk"
  },
  {
    "stop_id": 248,
    "stop_lat": 28.738473,
    "stop_lon": 77.154112,
    "stop_name": "Mukraba Chowk / Sanjay Gandhi Transport Nagar"
  },
  {
    "stop_id": 249,
    "stop_lat": 28.752467,
    "stop_lon": 77.149383,
    "stop_name": "Libas Pur GT Road"
  },
  {
    "stop_id": 250,
    "stop_lat": 28.75805,
    "stop_lon": 77.14765,
    "stop_name": "Swaroop Nagar GT Road"
  },
  {
    "stop_id": 251,
    "stop_lat": 28.76486,
    "stop_lon": 77.145315,
    "stop_name": "Gurudwara Siraspur GT Road"
  },
  {
    "stop_id": 252,
    "stop_lat": 28.771708,
    "stop_lon": 77.142899,
    "stop_name": "Nangli Poona More"
  },
  {
    "stop_id": 253,
    "stop_lat": 28.771944,
    "stop_lon": 77.121967,
    "stop_name": "Khera Garhi"
  },
  {
    "stop_id": 254,
    "stop_lat": 28.771903,
    "stop_lon": 77.117675,
    "stop_name": "Khera Kalan School"
  },
  {
    "stop_id": 255,
    "stop_lat": 28.772345,
    "stop_lon": 77.115104,
    "stop_name": "Khera Kalan Gaon"
  },
  {
    "stop_id": 256,
    "stop_lat": 28.773931,
    "stop_lon": 77.104022,
    "stop_name": "Rishi Dharmarth Chikitsalaya"
  },
  {
    "stop_id": 257,
    "stop_lat": 28.773923,
    "stop_lon": 77.102521,
    "stop_name": "Khera Khurd Village"
  },
  {
    "stop_id": 258,
    "stop_lat": 28.773761,
    "stop_lon": 77.09241,
    "stop_name": "Khera Khurd Nahar Crossing"
  },
  {
    "stop_id": 259,
    "stop_lat": 28.783337,
    "stop_lon": 77.096637,
    "stop_name": "Naya Bans"
  },
  {
    "stop_id": 260,
    "stop_lat": 28.793447,
    "stop_lon": 77.095545,
    "stop_name": "Mann School"
  },
  {
    "stop_id": 261,
    "stop_lat": 28.795391,
    "stop_lon": 77.097784,
    "stop_name": "Holambi Khurd DRID College"
  },
  {
    "stop_id": 262,
    "stop_lat": 28.799721,
    "stop_lon": 77.096011,
    "stop_name": "Holambi Khurd"
  },
  {
    "stop_id": 263,
    "stop_lat": 28.801883,
    "stop_lon": 77.096003,
    "stop_name": "Holambi Kalan Terminal"
  },
  {
    "stop_id": 264,
    "stop_lat": 28.809564,
    "stop_lon": 77.107095,
    "stop_name": "Holambi Kalan Crossing"
  },
  {
    "stop_id": 265,
    "stop_lat": 28.817688,
    "stop_lon": 77.102397,
    "stop_name": "Shahpur Garhi"
  },
  {
    "stop_id": 266,
    "stop_lat": 28.820295,
    "stop_lon": 77.101135,
    "stop_name": "Narela ITI / Narela Depot"
  },
  {
    "stop_id": 267,
    "stop_lat": 28.821204,
    "stop_lon": 77.100678,
    "stop_name": "DSIDC Narela"
  },
  {
    "stop_id": 268,
    "stop_lat": 28.829162,
    "stop_lon": 77.094509,
    "stop_name": "Bhor Garh"
  },
  {
    "stop_id": 269,
    "stop_lat": 28.833012,
    "stop_lon": 77.093266,
    "stop_name": "Babu Jag Jeevan Ram Colony"
  },
  {
    "stop_id": 270,
    "stop_lat": 28.845328,
    "stop_lon": 77.088967,
    "stop_name": "Old Anaj Mandi"
  },
  {
    "stop_id": 271,
    "stop_lat": 28.847045,
    "stop_lon": 77.088366,
    "stop_name": "Narela Primary School"
  },
  {
    "stop_id": 272,
    "stop_lat": 28.779253,
    "stop_lon": 77.179936,
    "stop_name": "Keshav Nagar Mukti Ashram"
  },
  {
    "stop_id": 273,
    "stop_lat": 28.775793,
    "stop_lon": 77.179669,
    "stop_name": "Ibrahim Pur More"
  },
  {
    "stop_id": 274,
    "stop_lat": 28.768883,
    "stop_lon": 77.180783,
    "stop_name": "Natthupura Crossing Terminal"
  },
  {
    "stop_id": 275,
    "stop_lat": 28.7645,
    "stop_lon": 77.1838,
    "stop_name": "Amrit Vihar Colony"
  },
  {
    "stop_id": 276,
    "stop_lat": 28.761167,
    "stop_lon": 77.188717,
    "stop_name": "Koushik Enclave"
  },
  {
    "stop_id": 277,
    "stop_lat": 28.76015,
    "stop_lon": 77.1910833333,
    "stop_name": "Laxmi Vihar"
  },
  {
    "stop_id": 278,
    "stop_lat": 28.7555,
    "stop_lon": 77.1983,
    "stop_name": "Ekta Garden Harijan Basti"
  },
  {
    "stop_id": 279,
    "stop_lat": 28.7541,
    "stop_lon": 77.199,
    "stop_name": "Burari Village"
  },
  {
    "stop_id": 280,
    "stop_lat": 28.7492333333,
    "stop_lon": 77.1985666667,
    "stop_name": "Sarvodhya Vidhyalay Burari"
  },
  {
    "stop_id": 281,
    "stop_lat": 28.7467,
    "stop_lon": 77.1983,
    "stop_name": "Balti Factory"
  },
  {
    "stop_id": 282,
    "stop_lat": 28.7418,
    "stop_lon": 77.198,
    "stop_name": "Sant Nagar Main Market"
  },
  {
    "stop_id": 283,
    "stop_lat": 28.7377,
    "stop_lon": 77.1973,
    "stop_name": "Sant Nagar A1"
  },
  {
    "stop_id": 284,
    "stop_lat": 28.734483,
    "stop_lon": 77.197717,
    "stop_name": "Jharoda Dairy Crossing"
  },
  {
    "stop_id": 285,
    "stop_lat": 28.730567,
    "stop_lon": 77.198467,
    "stop_name": "Burari Transport Authority"
  },
  {
    "stop_id": 286,
    "stop_lat": 28.72773,
    "stop_lon": 77.198067,
    "stop_name": "Nirankari Sarover"
  },
  {
    "stop_id": 287,
    "stop_lat": 28.72095,
    "stop_lon": 77.20015,
    "stop_name": "CV Raman ITI"
  },
  {
    "stop_id": 288,
    "stop_lat": 28.714883,
    "stop_lon": 77.2041,
    "stop_name": "Nirankari Colony"
  },
  {
    "stop_id": 289,
    "stop_lat": 28.7112333333,
    "stop_lon": 77.2045,
    "stop_name": "Radio Colony"
  },
  {
    "stop_id": 290,
    "stop_lat": 28.706789,
    "stop_lon": 77.204733,
    "stop_name": "Dhaka Village"
  },
  {
    "stop_id": 291,
    "stop_lat": 28.70458,
    "stop_lon": 77.205033,
    "stop_name": "Balmiki Gandhi Ashram"
  },
  {
    "stop_id": 292,
    "stop_lat": 28.700567,
    "stop_lon": 77.205017,
    "stop_name": "TB Hospital"
  },
  {
    "stop_id": 293,
    "stop_lat": 28.698294,
    "stop_lon": 77.206554,
    "stop_name": "GTB Nagar"
  },
  {
    "stop_id": 294,
    "stop_lat": 28.690202,
    "stop_lon": 77.221419,
    "stop_name": "Khyber Pass"
  },
  {
    "stop_id": 295,
    "stop_lat": 28.687634,
    "stop_lon": 77.221672,
    "stop_name": "Vidhan Sabha Metro Station"
  },
  {
    "stop_id": 296,
    "stop_lat": 28.683891,
    "stop_lon": 77.222282,
    "stop_name": "Old Secretariat (Postal Account Office)"
  },
  {
    "stop_id": 297,
    "stop_lat": 28.679703,
    "stop_lon": 77.223955,
    "stop_name": "IP College"
  },
  {
    "stop_id": 298,
    "stop_lat": 28.676602,
    "stop_lon": 77.225033,
    "stop_name": "Exchange Store / Civil Lines Metro Station"
  },
  {
    "stop_id": 299,
    "stop_lat": 28.672405,
    "stop_lon": 77.226008,
    "stop_name": "Ludlow Castle"
  },
  {
    "stop_id": 300,
    "stop_lat": 28.668479,
    "stop_lon": 77.226269,
    "stop_name": "ISBT Nityanand Marg"
  },
  {
    "stop_id": 301,
    "stop_lat": 28.768915,
    "stop_lon": 77.18095,
    "stop_name": "Natthupura Terminal"
  },
  {
    "stop_id": 303,
    "stop_lat": 28.7387275692,
    "stop_lon": 77.1976852839,
    "stop_name": "Sant Nagar A-1"
  },
  {
    "stop_id": 304,
    "stop_lat": 28.698283,
    "stop_lon": 77.2076,
    "stop_name": "GTB Nagar / Haqiqat Nagar"
  },
  {
    "stop_id": 305,
    "stop_lat": 28.70265,
    "stop_lon": 77.2098166667,
    "stop_name": "Sewa Kutir"
  },
  {
    "stop_id": 306,
    "stop_lat": 28.704317,
    "stop_lon": 77.211183,
    "stop_name": "BBM Cluster Depot"
  },
  {
    "stop_id": 312,
    "stop_lat": 28.5404,
    "stop_lon": 77.2968,
    "stop_name": "Jasola Vihar"
  },
  {
    "stop_id": 313,
    "stop_lat": 28.538333,
    "stop_lon": 77.291867,
    "stop_name": "Sarita Vihar K Block"
  },
  {
    "stop_id": 314,
    "stop_lat": 28.539501,
    "stop_lon": 77.282682,
    "stop_name": "Apollo Hospital"
  },
  {
    "stop_id": 315,
    "stop_lat": 28.543764,
    "stop_lon": 77.27934,
    "stop_name": "Harkesh Nagar"
  },
  {
    "stop_id": 316,
    "stop_lat": 28.548007,
    "stop_lon": 77.276605,
    "stop_name": "Okhla Tank"
  },
  {
    "stop_id": 317,
    "stop_lat": 28.551088,
    "stop_lon": 77.273998,
    "stop_name": "CRRI"
  },
  {
    "stop_id": 318,
    "stop_lat": 28.554827,
    "stop_lon": 77.271291,
    "stop_name": "Sukhdev Vihar Depot"
  },
  {
    "stop_id": 319,
    "stop_lat": 28.55795,
    "stop_lon": 77.26895,
    "stop_name": "Kalkaji Xing"
  },
  {
    "stop_id": 320,
    "stop_lat": 28.561592,
    "stop_lon": 77.266287,
    "stop_name": "Ishwar Nagar"
  },
  {
    "stop_id": 322,
    "stop_lat": 28.57045,
    "stop_lon": 77.259788,
    "stop_name": "Ashram Chowk"
  },
  {
    "stop_id": 323,
    "stop_lat": 28.574277,
    "stop_lon": 77.256865,
    "stop_name": "Ashram (Hari Nagar)"
  },
  {
    "stop_id": 324,
    "stop_lat": 28.582917,
    "stop_lon": 77.251209,
    "stop_name": "Bhogal"
  },
  {
    "stop_id": 325,
    "stop_lat": 28.584692,
    "stop_lon": 77.249659,
    "stop_name": "Bhogal (Jungpura)"
  },
  {
    "stop_id": 326,
    "stop_lat": 28.589269,
    "stop_lon": 77.246339,
    "stop_name": "Nizamuddin Extension"
  },
  {
    "stop_id": 327,
    "stop_lat": 28.591349,
    "stop_lon": 77.244916,
    "stop_name": "Police Station Nizamuddin (Dargah)"
  },
  {
    "stop_id": 328,
    "stop_lat": 28.5924,
    "stop_lon": 77.23675,
    "stop_name": "Ishpat Bhawan"
  },
  {
    "stop_id": 329,
    "stop_lat": 28.591833,
    "stop_lon": 77.232383,
    "stop_name": "JLN Stadium (Sunehripulla Depot)"
  },
  {
    "stop_id": 330,
    "stop_lat": 28.586733,
    "stop_lon": 77.22425,
    "stop_name": "Lodhi Colony 18-Block"
  },
  {
    "stop_id": 331,
    "stop_lat": 28.584817,
    "stop_lon": 77.224533,
    "stop_name": "Lodhi Colony"
  },
  {
    "stop_id": 332,
    "stop_lat": 28.580036,
    "stop_lon": 77.225132,
    "stop_name": "Kushak Nallah Depot"
  },
  {
    "stop_id": 334,
    "stop_lat": 28.529703,
    "stop_lon": 77.287907,
    "stop_name": "Madanpur Khadar Crossing"
  },
  {
    "stop_id": 335,
    "stop_lat": 28.532092,
    "stop_lon": 77.286936,
    "stop_name": "Sarita Vihar"
  },
  {
    "stop_id": 336,
    "stop_lat": 28.568283,
    "stop_lon": 77.253917,
    "stop_name": "Nehru Nagar"
  },
  {
    "stop_id": 337,
    "stop_lat": 28.565391,
    "stop_lon": 77.248511,
    "stop_name": "Lajpat Nagar Ring Road"
  },
  {
    "stop_id": 338,
    "stop_lat": 28.564833,
    "stop_lon": 77.241433,
    "stop_name": "Gupta Market"
  },
  {
    "stop_id": 339,
    "stop_lat": 28.564823,
    "stop_lon": 77.239969,
    "stop_name": "Gupta Market"
  },
  {
    "stop_id": 340,
    "stop_lat": 28.569135,
    "stop_lon": 77.235154,
    "stop_name": "MCKR Hospital"
  },
  {
    "stop_id": 341,
    "stop_lat": 28.573,
    "stop_lon": 77.237367,
    "stop_name": "Defence Colony"
  },
  {
    "stop_id": 342,
    "stop_lat": 28.583917,
    "stop_lon": 77.240533,
    "stop_name": "Pant Nagar"
  },
  {
    "stop_id": 343,
    "stop_lat": 28.587033,
    "stop_lon": 77.2408,
    "stop_name": "CGO Complex"
  },
  {
    "stop_id": 344,
    "stop_lat": 28.596267,
    "stop_lon": 77.240433,
    "stop_name": "Amir Khusro Park / Oberoi Hotel"
  },
  {
    "stop_id": 345,
    "stop_lat": 28.598783,
    "stop_lon": 77.2406,
    "stop_name": "Delhi Public School"
  },
  {
    "stop_id": 347,
    "stop_lat": 28.6084,
    "stop_lon": 77.23995,
    "stop_name": "Zoo"
  },
  {
    "stop_id": 348,
    "stop_lat": 28.611683,
    "stop_lon": 77.239967,
    "stop_name": "National Stadium"
  },
  {
    "stop_id": 349,
    "stop_lat": 28.6155,
    "stop_lon": 77.24015,
    "stop_name": "ITPO Gate No. 3"
  },
  {
    "stop_id": 350,
    "stop_lat": 28.618483,
    "stop_lon": 77.240183,
    "stop_name": "Pragati Maidan Gate No. 5"
  },
  {
    "stop_id": 351,
    "stop_lat": 28.622877,
    "stop_lon": 77.240388,
    "stop_name": "Supreme Court"
  },
  {
    "stop_id": 352,
    "stop_lat": 28.623433,
    "stop_lon": 77.240567,
    "stop_name": "Pragati Maidan Metro Station"
  },
  {
    "stop_id": 353,
    "stop_lat": 28.629065,
    "stop_lon": 77.241192,
    "stop_name": "ITO (Agarwal Chowk)"
  },
  {
    "stop_id": 354,
    "stop_lat": 28.633864,
    "stop_lon": 77.240804,
    "stop_name": "Express Building"
  },
  {
    "stop_id": 355,
    "stop_lat": 28.638817,
    "stop_lon": 77.241013,
    "stop_name": "Delhi Gate / Ambedkar Stadium"
  },
  {
    "stop_id": 356,
    "stop_lat": 28.64635,
    "stop_lon": 77.240226,
    "stop_name": "Darya Ganj Golcha Cinema"
  },
  {
    "stop_id": 357,
    "stop_lat": 28.649272,
    "stop_lon": 77.239311,
    "stop_name": "Subhash Park"
  },
  {
    "stop_id": 358,
    "stop_lat": 28.651255,
    "stop_lon": 77.237958,
    "stop_name": "Jama Masjid"
  },
  {
    "stop_id": 359,
    "stop_lat": 28.653939,
    "stop_lon": 77.236401,
    "stop_name": "Red Fort"
  },
  {
    "stop_id": 363,
    "stop_lat": 28.535283,
    "stop_lon": 76.909333,
    "stop_name": "Jhul-Jhuli Check Post / Ghumanhera Crossing"
  },
  {
    "stop_id": 364,
    "stop_lat": 28.552333,
    "stop_lon": 76.907483,
    "stop_name": "Malik Pur Village Crossing"
  },
  {
    "stop_id": 365,
    "stop_lat": 28.5683384634,
    "stop_lon": 76.9065230295,
    "stop_name": "Ujwa Gaon"
  },
  {
    "stop_id": 366,
    "stop_lat": 28.5735106,
    "stop_lon": 76.9082469,
    "stop_name": "Ujwa School"
  },
  {
    "stop_id": 368,
    "stop_lat": 28.5790789307,
    "stop_lon": 76.9100964494,
    "stop_name": "Samaspur Khalsa"
  },
  {
    "stop_id": 370,
    "stop_lat": 28.6004037765,
    "stop_lon": 76.9161106637,
    "stop_name": "Rawta Crossing (Dhansa Road)"
  },
  {
    "stop_id": 371,
    "stop_lat": 28.60448,
    "stop_lon": 76.932397,
    "stop_name": "Surehra Crossing"
  },
  {
    "stop_id": 372,
    "stop_lat": 28.607252,
    "stop_lon": 76.939754,
    "stop_name": "Mitraon School"
  },
  {
    "stop_id": 374,
    "stop_lat": 28.608343,
    "stop_lon": 76.951668,
    "stop_name": "Mitraon Crossing"
  },
  {
    "stop_id": 375,
    "stop_lat": 28.608858,
    "stop_lon": 76.959974,
    "stop_name": "Indra Service Station"
  },
  {
    "stop_id": 376,
    "stop_lat": 28.609487,
    "stop_lon": 76.967851,
    "stop_name": "Nanak Piyau"
  },
  {
    "stop_id": 377,
    "stop_lat": 28.610354,
    "stop_lon": 76.971259,
    "stop_name": "Prem Nursary"
  },
  {
    "stop_id": 378,
    "stop_lat": 28.6111300229,
    "stop_lon": 76.9744597384,
    "stop_name": "Khera More / Ghuman Hera Crossing"
  },
  {
    "stop_id": 379,
    "stop_lat": 28.613765705,
    "stop_lon": 76.9793626158,
    "stop_name": "Jharoda Crossing Jharoda Road"
  },
  {
    "stop_id": 380,
    "stop_lat": 28.6148311619,
    "stop_lon": 76.9772491148,
    "stop_name": "NajafGarh Terminal"
  },
  {
    "stop_id": 381,
    "stop_lat": 28.703538,
    "stop_lon": 77.169078,
    "stop_name": "Shalimar Bagh (Ring Road)"
  },
  {
    "stop_id": 382,
    "stop_lat": 28.701819,
    "stop_lon": 77.165532,
    "stop_name": "Ashok Vihar Crossing"
  },
  {
    "stop_id": 383,
    "stop_lat": 28.70097,
    "stop_lon": 77.161821,
    "stop_name": "Richi Rich"
  },
  {
    "stop_id": 384,
    "stop_lat": 28.700065,
    "stop_lon": 77.158465,
    "stop_name": "Prem Bari Pul"
  },
  {
    "stop_id": 385,
    "stop_lat": 28.695994,
    "stop_lon": 77.155671,
    "stop_name": "Punjab Kesari (Subhash Palace Depot)"
  },
  {
    "stop_id": 386,
    "stop_lat": 28.693861,
    "stop_lon": 77.150918,
    "stop_name": "Wazirpur DTC Depot / Netaji Subhash Palace"
  },
  {
    "stop_id": 387,
    "stop_lat": 28.69553,
    "stop_lon": 77.146025,
    "stop_name": "Pitampura ND Block"
  },
  {
    "stop_id": 388,
    "stop_lat": 28.697168,
    "stop_lon": 77.142174,
    "stop_name": "Kohat Enclave Metro Station"
  },
  {
    "stop_id": 389,
    "stop_lat": 28.699303,
    "stop_lon": 77.137619,
    "stop_name": "Vaishali  Enclave / Kapil Vihar"
  },
  {
    "stop_id": 390,
    "stop_lat": 28.701454,
    "stop_lon": 77.134768,
    "stop_name": "JD Block Pitam Pura"
  },
  {
    "stop_id": 391,
    "stop_lat": 28.702377,
    "stop_lon": 77.133476,
    "stop_name": "Pitampura Metro Station Madhuban Chowk"
  },
  {
    "stop_id": 392,
    "stop_lat": 28.702886,
    "stop_lon": 77.130242,
    "stop_name": "Madhuban Chowk Outer Ring Road"
  },
  {
    "stop_id": 393,
    "stop_lat": 28.700082,
    "stop_lon": 77.125333,
    "stop_name": "Saraswati  Vihar C Block"
  },
  {
    "stop_id": 394,
    "stop_lat": 28.69796,
    "stop_lon": 77.11962,
    "stop_name": "Deepali Chowk"
  },
  {
    "stop_id": 395,
    "stop_lat": 28.697185,
    "stop_lon": 77.115505,
    "stop_name": "Kali Mata Mandir"
  },
  {
    "stop_id": 396,
    "stop_lat": 28.696165,
    "stop_lon": 77.111793,
    "stop_name": "Puspanjali Enclave"
  },
  {
    "stop_id": 397,
    "stop_lat": 28.695388,
    "stop_lon": 77.109414,
    "stop_name": "Rohini Depot  3"
  },
  {
    "stop_id": 398,
    "stop_lat": 28.694461,
    "stop_lon": 77.106694,
    "stop_name": "Mangolpur School"
  },
  {
    "stop_id": 399,
    "stop_lat": 28.695549,
    "stop_lon": 77.101135,
    "stop_name": "Mangolpur Kalan Village"
  },
  {
    "stop_id": 400,
    "stop_lat": 28.69875,
    "stop_lon": 77.0964,
    "stop_name": "Avantika Crossing"
  },
  {
    "stop_id": 401,
    "stop_lat": 28.700005,
    "stop_lon": 77.094325,
    "stop_name": "Mangol Pur Khurd"
  },
  {
    "stop_id": 402,
    "stop_lat": 28.702634,
    "stop_lon": 77.089647,
    "stop_name": "Mangolpuri Y Block"
  },
  {
    "stop_id": 403,
    "stop_lat": 28.704528,
    "stop_lon": 77.086895,
    "stop_name": "Krishna Vihar"
  },
  {
    "stop_id": 404,
    "stop_lat": 28.709736,
    "stop_lon": 77.081042,
    "stop_name": "Krishna Vihar"
  },
  {
    "stop_id": 405,
    "stop_lat": 28.7125001,
    "stop_lon": 77.0805,
    "stop_name": "Brahm Shakti Hospital"
  },
  {
    "stop_id": 406,
    "stop_lat": 28.714257,
    "stop_lon": 77.076933,
    "stop_name": "Pooth Kalan"
  },
  {
    "stop_id": 407,
    "stop_lat": 28.7187,
    "stop_lon": 77.0696,
    "stop_name": "Rohini Sec-21"
  },
  {
    "stop_id": 408,
    "stop_lat": 28.7217,
    "stop_lon": 77.06495,
    "stop_name": "Begumpur"
  },
  {
    "stop_id": 410,
    "stop_lat": 28.726356,
    "stop_lon": 77.053345,
    "stop_name": "Karala Pathsala Jain Mandir"
  },
  {
    "stop_id": 411,
    "stop_lat": 28.727533,
    "stop_lon": 77.04895,
    "stop_name": "Sukhbeer Nagar"
  },
  {
    "stop_id": 412,
    "stop_lat": 28.728583,
    "stop_lon": 77.045817,
    "stop_name": "Rama Vihar"
  },
  {
    "stop_id": 413,
    "stop_lat": 28.730681,
    "stop_lon": 77.039664,
    "stop_name": "Karala School"
  },
  {
    "stop_id": 414,
    "stop_lat": 28.7315,
    "stop_lon": 77.037,
    "stop_name": "Karala Village"
  },
  {
    "stop_id": 415,
    "stop_lat": 28.731601,
    "stop_lon": 77.031627,
    "stop_name": "Karala Crossing"
  },
  {
    "stop_id": 416,
    "stop_lat": 28.7325,
    "stop_lon": 77.0284,
    "stop_name": "Desu Office"
  },
  {
    "stop_id": 417,
    "stop_lat": 28.7333,
    "stop_lon": 77.025,
    "stop_name": "Shiv Vihar Bheem Chowk"
  },
  {
    "stop_id": 418,
    "stop_lat": 28.73384,
    "stop_lon": 77.0208,
    "stop_name": "Radha Swami Satsang"
  },
  {
    "stop_id": 419,
    "stop_lat": 28.7352,
    "stop_lon": 77.0125833333,
    "stop_name": "Shivam Plywood"
  },
  {
    "stop_id": 420,
    "stop_lat": 28.737911,
    "stop_lon": 77.00692,
    "stop_name": "Kanjhawla Chowk"
  },
  {
    "stop_id": 421,
    "stop_lat": 28.738428,
    "stop_lon": 77.004399,
    "stop_name": "Nirmal Hospital"
  },
  {
    "stop_id": 422,
    "stop_lat": 28.73949,
    "stop_lon": 76.997517,
    "stop_name": "Ladpur Village"
  },
  {
    "stop_id": 423,
    "stop_lat": 28.740338,
    "stop_lon": 76.994313,
    "stop_name": "Rajendra Lakra Public School"
  },
  {
    "stop_id": 424,
    "stop_lat": 28.74225,
    "stop_lon": 76.9865,
    "stop_name": "Sant Vivekanand School"
  },
  {
    "stop_id": 425,
    "stop_lat": 28.744467,
    "stop_lon": 76.980917,
    "stop_name": "Vriddha Ashram"
  },
  {
    "stop_id": 426,
    "stop_lat": 28.74615,
    "stop_lon": 76.978217,
    "stop_name": "Jonti Crossing"
  },
  {
    "stop_id": 427,
    "stop_lat": 28.7531452409,
    "stop_lon": 76.9720678349,
    "stop_name": "Jonti Village"
  },
  {
    "stop_id": 428,
    "stop_lat": 28.755872,
    "stop_lon": 76.968475,
    "stop_name": "Tatesar Village"
  },
  {
    "stop_id": 429,
    "stop_lat": 28.767498,
    "stop_lon": 76.96456,
    "stop_name": "Balaji Enclave"
  },
  {
    "stop_id": 430,
    "stop_lat": 28.773006,
    "stop_lon": 76.962094,
    "stop_name": "Punjab Khor Village"
  },
  {
    "stop_id": 431,
    "stop_lat": 28.7779,
    "stop_lon": 76.9614,
    "stop_name": "Punjab Khor Village"
  },
  {
    "stop_id": 432,
    "stop_lat": 28.788119,
    "stop_lon": 76.962441,
    "stop_name": "Divya Dham Ashram"
  },
  {
    "stop_id": 433,
    "stop_lat": 28.79069,
    "stop_lon": 76.962473,
    "stop_name": "Jatt Khor Crossing"
  },
  {
    "stop_id": 434,
    "stop_lat": 28.7977,
    "stop_lon": 76.960533,
    "stop_name": "Qutub Garh Enclave"
  },
  {
    "stop_id": 435,
    "stop_lat": 28.801274,
    "stop_lon": 76.962031,
    "stop_name": "Qutub Garh Village (T)"
  },
  {
    "stop_id": 436,
    "stop_lat": 28.8061001,
    "stop_lon": 76.9658501,
    "stop_name": "Katewara Crossing"
  },
  {
    "stop_id": 437,
    "stop_lat": 28.805956,
    "stop_lon": 76.969867,
    "stop_name": "Katewara Colony"
  },
  {
    "stop_id": 439,
    "stop_lat": 28.643931,
    "stop_lon": 77.252592,
    "stop_name": "Rajghat Depot"
  },
  {
    "stop_id": 440,
    "stop_lat": 28.6389,
    "stop_lon": 77.2502,
    "stop_name": "Rajghat Gandhi Darshan"
  },
  {
    "stop_id": 441,
    "stop_lat": 28.636983,
    "stop_lon": 77.247267,
    "stop_name": "Gandhi Darshan"
  },
  {
    "stop_id": 442,
    "stop_lat": 28.6336,
    "stop_lon": 77.2469,
    "stop_name": "Indira Gandhi Stadium"
  },
  {
    "stop_id": 443,
    "stop_lat": 28.624078,
    "stop_lon": 77.247687,
    "stop_name": "IP Power House (ITO Ring Road)"
  },
  {
    "stop_id": 444,
    "stop_lat": 28.6195,
    "stop_lon": 77.249,
    "stop_name": "Indraprastha Depot"
  },
  {
    "stop_id": 445,
    "stop_lat": 28.616,
    "stop_lon": 77.2501,
    "stop_name": "Pragati Power Station"
  },
  {
    "stop_id": 446,
    "stop_lat": 28.610753,
    "stop_lon": 77.2517899,
    "stop_name": "Railway Road Bridge"
  },
  {
    "stop_id": 447,
    "stop_lat": 28.603408,
    "stop_lon": 77.254218,
    "stop_name": "Nizamuddin Road Bridge"
  },
  {
    "stop_id": 448,
    "stop_lat": 28.5908681,
    "stop_lon": 77.2581704,
    "stop_name": "ISBT Sarai Kale Khan"
  },
  {
    "stop_id": 449,
    "stop_lat": 28.580073,
    "stop_lon": 77.224903,
    "stop_name": "Kushak Nallah Depot"
  },
  {
    "stop_id": 450,
    "stop_lat": 28.5847,
    "stop_lon": 77.2247,
    "stop_name": "Lodhi Colony"
  },
  {
    "stop_id": 451,
    "stop_lat": 28.584967,
    "stop_lon": 77.228233,
    "stop_name": "Central School Lodhi Road"
  },
  {
    "stop_id": 452,
    "stop_lat": 28.5841,
    "stop_lon": 77.2301,
    "stop_name": "J L Nehru Stadium"
  },
  {
    "stop_id": 453,
    "stop_lat": 28.57875,
    "stop_lon": 77.229533,
    "stop_name": "Sewa Nagar Flyover"
  },
  {
    "stop_id": 454,
    "stop_lat": 28.571983,
    "stop_lon": 77.227669,
    "stop_name": "Defence Colony (Homyopathic College)"
  },
  {
    "stop_id": 455,
    "stop_lat": 28.569817,
    "stop_lon": 77.22655,
    "stop_name": "PT College Kotla"
  },
  {
    "stop_id": 456,
    "stop_lat": 28.565987,
    "stop_lon": 77.230567,
    "stop_name": "Andrews Ganj"
  },
  {
    "stop_id": 457,
    "stop_lat": 28.565133,
    "stop_lon": 77.239733,
    "stop_name": "Gupta Market"
  },
  {
    "stop_id": 458,
    "stop_lat": 28.565202,
    "stop_lon": 77.242598,
    "stop_name": "Lajpat Nagar (Ring Road)"
  },
  {
    "stop_id": 459,
    "stop_lat": 28.565781,
    "stop_lon": 77.249098,
    "stop_name": "Lajpat Nagar Ring Road"
  },
  {
    "stop_id": 460,
    "stop_lat": 28.564183,
    "stop_lon": 77.250367,
    "stop_name": "Lajpat Nagar Crossing"
  },
  {
    "stop_id": 461,
    "stop_lat": 28.5624,
    "stop_lon": 77.251417,
    "stop_name": "Garhi Village"
  },
  {
    "stop_id": 462,
    "stop_lat": 28.562167,
    "stop_lon": 77.255617,
    "stop_name": "B-Block East of Kailash"
  },
  {
    "stop_id": 463,
    "stop_lat": 28.56215,
    "stop_lon": 77.2582,
    "stop_name": "C-Block East of Kailash"
  },
  {
    "stop_id": 464,
    "stop_lat": 28.5612422,
    "stop_lon": 77.2601598,
    "stop_name": "SNPD"
  },
  {
    "stop_id": 465,
    "stop_lat": 28.5565,
    "stop_lon": 77.2648,
    "stop_name": "Laghu Udyog Sansthan (ModiMill)"
  },
  {
    "stop_id": 466,
    "stop_lat": 28.553683,
    "stop_lon": 77.265133,
    "stop_name": "NSIC"
  },
  {
    "stop_id": 467,
    "stop_lat": 28.55205,
    "stop_lon": 77.2645,
    "stop_name": "Kalkaji Mandir"
  },
  {
    "stop_id": 468,
    "stop_lat": 28.5479,
    "stop_lon": 77.263,
    "stop_name": "Kalkaji Mandir (MaaAnandmayeeMarg)"
  },
  {
    "stop_id": 469,
    "stop_lat": 28.545217,
    "stop_lon": 77.2641,
    "stop_name": "Govind Puri Metro Station"
  },
  {
    "stop_id": 470,
    "stop_lat": 28.5375,
    "stop_lon": 77.2674,
    "stop_name": "Kalkaji Depot"
  },
  {
    "stop_id": 471,
    "stop_lat": 28.534033,
    "stop_lon": 77.268667,
    "stop_name": "C-Lal Chowk"
  },
  {
    "stop_id": 472,
    "stop_lat": 28.527867,
    "stop_lon": 77.272383,
    "stop_name": "CRPF Camp / Crown Plaza"
  },
  {
    "stop_id": 473,
    "stop_lat": 28.5261,
    "stop_lon": 77.2736,
    "stop_name": "Bank"
  },
  {
    "stop_id": 474,
    "stop_lat": 28.5203,
    "stop_lon": 77.2777,
    "stop_name": "Okhla Ph-I"
  },
  {
    "stop_id": 475,
    "stop_lat": 28.51425,
    "stop_lon": 77.281333,
    "stop_name": "ESI Hospital"
  },
  {
    "stop_id": 476,
    "stop_lat": 28.510917,
    "stop_lon": 77.281167,
    "stop_name": "Tehkhand Depot DTC"
  },
  {
    "stop_id": 477,
    "stop_lat": 28.5044,
    "stop_lon": 77.2793,
    "stop_name": "Prem Nagar"
  },
  {
    "stop_id": 478,
    "stop_lat": 28.5026,
    "stop_lon": 77.284517,
    "stop_name": "Lal Kuan"
  },
  {
    "stop_id": 479,
    "stop_lat": 28.5017,
    "stop_lon": 77.291,
    "stop_name": "Surajkund Crossing"
  },
  {
    "stop_id": 480,
    "stop_lat": 28.5,
    "stop_lon": 77.294633,
    "stop_name": "Prehlad Pur"
  },
  {
    "stop_id": 481,
    "stop_lat": 28.4995,
    "stop_lon": 77.299267,
    "stop_name": "Badarpur M B Road"
  },
  {
    "stop_id": 482,
    "stop_lat": 28.498104,
    "stop_lon": 77.302191,
    "stop_name": "Jaitpur Crossing"
  },
  {
    "stop_id": 484,
    "stop_lat": 28.628968,
    "stop_lon": 76.997542,
    "stop_name": "Dichau Kalan Depot"
  },
  {
    "stop_id": 485,
    "stop_lat": 28.625293,
    "stop_lon": 76.992481,
    "stop_name": "Nirmal Vihar"
  },
  {
    "stop_id": 486,
    "stop_lat": 28.621564,
    "stop_lon": 76.988064,
    "stop_name": "Udaseen Ashram"
  },
  {
    "stop_id": 487,
    "stop_lat": 28.616516,
    "stop_lon": 76.98382,
    "stop_name": "Dichau Chowk"
  },
  {
    "stop_id": 488,
    "stop_lat": 28.611746,
    "stop_lon": 76.985721,
    "stop_name": "NajafGarh Delhi Gate"
  },
  {
    "stop_id": 489,
    "stop_lat": 28.607056,
    "stop_lon": 76.986005,
    "stop_name": "Chawla Stand Najafgarh"
  },
  {
    "stop_id": 490,
    "stop_lat": 28.600879,
    "stop_lon": 76.988758,
    "stop_name": "BDO Office"
  },
  {
    "stop_id": 491,
    "stop_lat": 28.59664,
    "stop_lon": 76.99046,
    "stop_name": "Durga Vihar"
  },
  {
    "stop_id": 492,
    "stop_lat": 28.594055,
    "stop_lon": 76.991774,
    "stop_name": "Deenpur Village"
  },
  {
    "stop_id": 493,
    "stop_lat": 28.591726,
    "stop_lon": 76.992969,
    "stop_name": "Goela Dairy Crossing"
  },
  {
    "stop_id": 494,
    "stop_lat": 28.591481,
    "stop_lon": 77.000564,
    "stop_name": "Shyam Vihar"
  },
  {
    "stop_id": 495,
    "stop_lat": 28.587801,
    "stop_lon": 77.008562,
    "stop_name": "Goyla Village"
  },
  {
    "stop_id": 496,
    "stop_lat": 28.583311,
    "stop_lon": 77.011776,
    "stop_name": "Taj Pur More"
  },
  {
    "stop_id": 497,
    "stop_lat": 28.581902,
    "stop_lon": 77.015056,
    "stop_name": "St Thomas School Goyla Vihar"
  },
  {
    "stop_id": 498,
    "stop_lat": 28.580514,
    "stop_lon": 77.019268,
    "stop_name": "Nehru Bus Stand Goyla Dairy"
  },
  {
    "stop_id": 499,
    "stop_lat": 28.5798547497,
    "stop_lon": 77.0219530369,
    "stop_name": "Goyla Dairy (Qutub Vihar)"
  },
  {
    "stop_id": 500,
    "stop_lat": 28.579252,
    "stop_lon": 77.024293,
    "stop_name": "Jhankar Crossing"
  },
  {
    "stop_id": 501,
    "stop_lat": 28.5784,
    "stop_lon": 77.029767,
    "stop_name": "Qutub Vihar Phase-I Kikar Stand"
  },
  {
    "stop_id": 502,
    "stop_lat": 28.577431,
    "stop_lon": 77.035333,
    "stop_name": "Police Post"
  },
  {
    "stop_id": 503,
    "stop_lat": 28.574817,
    "stop_lon": 77.0513,
    "stop_name": "Amrohi More"
  },
  {
    "stop_id": 504,
    "stop_lat": 28.578167,
    "stop_lon": 77.0542,
    "stop_name": "Dwarka Sec-19 Modern School"
  },
  {
    "stop_id": 505,
    "stop_lat": 28.579068,
    "stop_lon": 77.059118,
    "stop_name": "NHAI Building/ Dwarka Sec-10 Metro Station"
  },
  {
    "stop_id": 506,
    "stop_lat": 28.582753,
    "stop_lon": 77.062279,
    "stop_name": "President Cabinet Apartments"
  },
  {
    "stop_id": 507,
    "stop_lat": 28.587688,
    "stop_lon": 77.066452,
    "stop_name": "Princess Park/ Airforce Noval Office Enclave"
  },
  {
    "stop_id": 508,
    "stop_lat": 28.59126,
    "stop_lon": 77.069535,
    "stop_name": "Dwarka Sec-6/7"
  },
  {
    "stop_id": 509,
    "stop_lat": 28.593228,
    "stop_lon": 77.070994,
    "stop_name": "Dwarka Sec-6 Telephone Exchange"
  },
  {
    "stop_id": 510,
    "stop_lat": 28.593101,
    "stop_lon": 77.079538,
    "stop_name": "Maharaja Agrasen Hospital Dwarka"
  },
  {
    "stop_id": 511,
    "stop_lat": 28.592015,
    "stop_lon": 77.081258,
    "stop_name": "Health Centre"
  },
  {
    "stop_id": 512,
    "stop_lat": 28.590099,
    "stop_lon": 77.086907,
    "stop_name": "Mangla Puri Terminal"
  },
  {
    "stop_id": 513,
    "stop_lat": 28.632763,
    "stop_lon": 77.215806,
    "stop_name": "Shivaji Stadium Terminal"
  },
  {
    "stop_id": 514,
    "stop_lat": 28.633293,
    "stop_lon": 77.212365,
    "stop_name": "Shaheed Bhagat Singh Marg"
  },
  {
    "stop_id": 515,
    "stop_lat": 28.633562,
    "stop_lon": 77.209301,
    "stop_name": "Shaheed Bhagat Singh Marg"
  },
  {
    "stop_id": 516,
    "stop_lat": 28.6347,
    "stop_lon": 77.2037,
    "stop_name": "Gole Market"
  },
  {
    "stop_id": 517,
    "stop_lat": 28.638783,
    "stop_lon": 77.20345,
    "stop_name": "PS Mandir Marg"
  },
  {
    "stop_id": 518,
    "stop_lat": 28.639867,
    "stop_lon": 77.2043,
    "stop_name": "Balmiki Mandir"
  },
  {
    "stop_id": 519,
    "stop_lat": 28.6417,
    "stop_lon": 77.2042,
    "stop_name": "Panchkuian Road Banwai Lal Hospital"
  },
  {
    "stop_id": 520,
    "stop_lat": 28.643667,
    "stop_lon": 77.201033,
    "stop_name": "Meghdoot Bhawan"
  },
  {
    "stop_id": 521,
    "stop_lat": 28.644583,
    "stop_lon": 77.192833,
    "stop_name": "Pusa Road Petrol Pump Sadhu Vaswani Marg"
  },
  {
    "stop_id": 522,
    "stop_lat": 28.643911,
    "stop_lon": 77.188747,
    "stop_name": "Karol Bagh Metro Station"
  },
  {
    "stop_id": 524,
    "stop_lat": 28.6424110603,
    "stop_lon": 77.1734091778,
    "stop_name": "East Patel Nagar"
  },
  {
    "stop_id": 525,
    "stop_lat": 28.6453945694,
    "stop_lon": 77.1684196058,
    "stop_name": "South Patel Nagar (Metro Station)"
  },
  {
    "stop_id": 526,
    "stop_lat": 28.647504,
    "stop_lon": 77.164974,
    "stop_name": "West Patel Nagar"
  },
  {
    "stop_id": 527,
    "stop_lat": 28.6513447,
    "stop_lon": 77.1585098883,
    "stop_name": "Shadipur DTC Colony Metro Station"
  },
  {
    "stop_id": 528,
    "stop_lat": 28.653117,
    "stop_lon": 77.1555,
    "stop_name": "Shadipur Depot"
  },
  {
    "stop_id": 529,
    "stop_lat": 28.657317,
    "stop_lon": 77.1485,
    "stop_name": "Moti Nagar Industrial Area"
  },
  {
    "stop_id": 530,
    "stop_lat": 28.661,
    "stop_lon": 77.142383,
    "stop_name": "Karampura Terminal"
  },
  {
    "stop_id": 531,
    "stop_lat": 28.6635,
    "stop_lon": 77.1406,
    "stop_name": "New Moti Nagar B Block"
  },
  {
    "stop_id": 532,
    "stop_lat": 28.669318,
    "stop_lon": 77.137519,
    "stop_name": "Punjabi Bagh Terminal"
  },
  {
    "stop_id": 533,
    "stop_lat": 28.684228,
    "stop_lon": 77.147619,
    "stop_name": "Shakkur Pur Crossing / Britannia"
  },
  {
    "stop_id": 534,
    "stop_lat": 28.686452,
    "stop_lon": 77.150998,
    "stop_name": "Telephone Exchange"
  },
  {
    "stop_id": 535,
    "stop_lat": 28.691698,
    "stop_lon": 77.153496,
    "stop_name": "Netaji Subhas Place/Wazirpur Depot"
  },
  {
    "stop_id": 536,
    "stop_lat": 28.6979,
    "stop_lon": 77.151475,
    "stop_name": "Guru Govind Singh College"
  },
  {
    "stop_id": 537,
    "stop_lat": 28.699707,
    "stop_lon": 77.151202,
    "stop_name": "TV Tower (Power House)"
  },
  {
    "stop_id": 538,
    "stop_lat": 28.699912,
    "stop_lon": 77.14428,
    "stop_name": "DAV School"
  },
  {
    "stop_id": 539,
    "stop_lat": 28.7002,
    "stop_lon": 77.1411,
    "stop_name": "Pitam Pura KD Block"
  },
  {
    "stop_id": 540,
    "stop_lat": 28.703277,
    "stop_lon": 77.139304,
    "stop_name": "Pittampura AP-Block"
  },
  {
    "stop_id": 541,
    "stop_lat": 28.705955,
    "stop_lon": 77.138462,
    "stop_name": "Pitampura CD-Block"
  },
  {
    "stop_id": 542,
    "stop_lat": 28.707765,
    "stop_lon": 77.134558,
    "stop_name": "Pitampura Power House"
  },
  {
    "stop_id": 543,
    "stop_lat": 28.704931,
    "stop_lon": 77.132221,
    "stop_name": "Madhuban Chowk (Outer Ring Road)"
  },
  {
    "stop_id": 544,
    "stop_lat": 28.704675,
    "stop_lon": 77.130151,
    "stop_name": "Madhuvan Chowk"
  },
  {
    "stop_id": 545,
    "stop_lat": 28.707658,
    "stop_lon": 77.123974,
    "stop_name": "Sai Baba Chowk Rohini Sec 7"
  },
  {
    "stop_id": 546,
    "stop_lat": 28.70906,
    "stop_lon": 77.123648,
    "stop_name": "Sai Baba Chowk Rohini"
  },
  {
    "stop_id": 547,
    "stop_lat": 28.711578,
    "stop_lon": 77.120316,
    "stop_name": "Rohini Sec 7 and 8"
  },
  {
    "stop_id": 548,
    "stop_lat": 28.715,
    "stop_lon": 77.115,
    "stop_name": "Rohini West Metro Station"
  },
  {
    "stop_id": 549,
    "stop_lat": 28.7158,
    "stop_lon": 77.113983,
    "stop_name": "Rohini Depot 1 Sec 6 (Ambedkar Hospital)"
  },
  {
    "stop_id": 550,
    "stop_lat": 28.71725,
    "stop_lon": 77.111833,
    "stop_name": "Rajeev Gandhi Cancer Hospital"
  },
  {
    "stop_id": 551,
    "stop_lat": 28.71964,
    "stop_lon": 77.108529,
    "stop_name": "Rithala Metro Station"
  },
  {
    "stop_id": 552,
    "stop_lat": 28.723411,
    "stop_lon": 77.103745,
    "stop_name": "Pal Colony"
  },
  {
    "stop_id": 553,
    "stop_lat": 28.725811,
    "stop_lon": 77.100279,
    "stop_name": "Rithala Village"
  },
  {
    "stop_id": 554,
    "stop_lat": 28.727139,
    "stop_lon": 77.098373,
    "stop_name": "Sec-24 Rohini Main Road"
  },
  {
    "stop_id": 555,
    "stop_lat": 28.72976,
    "stop_lon": 77.094556,
    "stop_name": "Dera Satguru Sewaram Sahai Sec 24/25 Crossing"
  },
  {
    "stop_id": 557,
    "stop_lat": 28.722883,
    "stop_lon": 77.08773,
    "stop_name": "Hanuman Mandir Rohini Sec 24"
  },
  {
    "stop_id": 558,
    "stop_lat": 28.7192220505,
    "stop_lon": 77.0846028894,
    "stop_name": "Rohini Sec 23 (Green Hill Aptt.)"
  },
  {
    "stop_id": 559,
    "stop_lat": 28.532153,
    "stop_lon": 76.922323,
    "stop_name": "Ghuman Hera Village"
  },
  {
    "stop_id": 560,
    "stop_lat": 28.536905,
    "stop_lon": 76.922167,
    "stop_name": "Ghuman Hera More / Shikarpur Crossing"
  },
  {
    "stop_id": 561,
    "stop_lat": 28.548976,
    "stop_lon": 76.930686,
    "stop_name": "Dewta Wala mandir"
  },
  {
    "stop_id": 562,
    "stop_lat": 28.5568222695,
    "stop_lon": 76.9368548834,
    "stop_name": "Hasanpur Village"
  },
  {
    "stop_id": 563,
    "stop_lat": 28.56176,
    "stop_lon": 76.941887,
    "stop_name": "KharKhari Rondh"
  },
  {
    "stop_id": 564,
    "stop_lat": 28.574027,
    "stop_lon": 76.952356,
    "stop_name": "Pandwala Crossing"
  },
  {
    "stop_id": 565,
    "stop_lat": 28.582168,
    "stop_lon": 76.957902,
    "stop_name": "KharKhari Jatmal / Surhera Crossing"
  },
  {
    "stop_id": 566,
    "stop_lat": 28.58704,
    "stop_lon": 76.959128,
    "stop_name": "KharKhari Nahar / Khera Dabur"
  },
  {
    "stop_id": 567,
    "stop_lat": 28.596312,
    "stop_lon": 76.964794,
    "stop_name": "Khera Village 2"
  },
  {
    "stop_id": 568,
    "stop_lat": 28.606791,
    "stop_lon": 76.972726,
    "stop_name": "Krishna Nagar / Gopal Nagar"
  },
  {
    "stop_id": 569,
    "stop_lat": 28.5846382854,
    "stop_lon": 76.995052823,
    "stop_name": "Jhatikra Crossing Pandwala Road"
  },
  {
    "stop_id": 570,
    "stop_lat": 28.572355,
    "stop_lon": 76.980956,
    "stop_name": "Rewla Khanpur Crossing"
  },
  {
    "stop_id": 571,
    "stop_lat": 28.569584,
    "stop_lon": 76.977685,
    "stop_name": "Purani Basti Rewla Khanpur"
  },
  {
    "stop_id": 572,
    "stop_lat": 28.5686740652,
    "stop_lon": 76.9767144144,
    "stop_name": "Rewla Khanpur Depot"
  },
  {
    "stop_id": 573,
    "stop_lat": 28.835983,
    "stop_lon": 77.123838,
    "stop_name": "Tikri Khurd"
  },
  {
    "stop_id": 574,
    "stop_lat": 28.836177,
    "stop_lon": 77.12839,
    "stop_name": "Tikri Khurd Crossing / AMPC"
  },
  {
    "stop_id": 575,
    "stop_lat": 28.835604,
    "stop_lon": 77.128935,
    "stop_name": "Tikri Khurd Crossing / AMPC"
  },
  {
    "stop_id": 576,
    "stop_lat": 28.824476,
    "stop_lon": 77.132311,
    "stop_name": "Khampur Village"
  },
  {
    "stop_id": 577,
    "stop_lat": 28.810288,
    "stop_lon": 77.137092,
    "stop_name": "Bakauli Village (GT Road)"
  },
  {
    "stop_id": 578,
    "stop_lat": 28.80415,
    "stop_lon": 77.14274,
    "stop_name": "Shani Dham Mandir GT Road"
  },
  {
    "stop_id": 579,
    "stop_lat": 28.8012,
    "stop_lon": 77.138967,
    "stop_name": "Pwd Office"
  },
  {
    "stop_id": 580,
    "stop_lat": 28.796617,
    "stop_lon": 77.1396,
    "stop_name": "Alipur Village GT Road"
  },
  {
    "stop_id": 581,
    "stop_lat": 28.793233,
    "stop_lon": 77.14415,
    "stop_name": "Jind Pur Crossing"
  },
  {
    "stop_id": 582,
    "stop_lat": 28.78865,
    "stop_lon": 77.141467,
    "stop_name": "Sai Mandir"
  },
  {
    "stop_id": 583,
    "stop_lat": 28.782107,
    "stop_lon": 77.141601,
    "stop_name": "Budhpur GT Road"
  },
  {
    "stop_id": 584,
    "stop_lat": 28.77715,
    "stop_lon": 77.142633,
    "stop_name": "Jain Mandir"
  },
  {
    "stop_id": 585,
    "stop_lat": 28.774167,
    "stop_lon": 77.143267,
    "stop_name": "Nangli Poona (GT Road)"
  },
  {
    "stop_id": 586,
    "stop_lat": 28.764956,
    "stop_lon": 77.146126,
    "stop_name": "Gurudwara Siraspur GT Road"
  },
  {
    "stop_id": 587,
    "stop_lat": 28.522481,
    "stop_lon": 77.082442,
    "stop_name": "Kapashera Border"
  },
  {
    "stop_id": 588,
    "stop_lat": 28.524517,
    "stop_lon": 77.0837,
    "stop_name": "Kapashera Village"
  },
  {
    "stop_id": 589,
    "stop_lat": 28.531234,
    "stop_lon": 77.088154,
    "stop_name": "Kapashera Crossing"
  },
  {
    "stop_id": 590,
    "stop_lat": 28.534492,
    "stop_lon": 77.090371,
    "stop_name": "Samalkha Village"
  },
  {
    "stop_id": 591,
    "stop_lat": 28.538205,
    "stop_lon": 77.091434,
    "stop_name": "Samalkha Crossing"
  },
  {
    "stop_id": 592,
    "stop_lat": 28.5422626712,
    "stop_lon": 77.0735459241,
    "stop_name": "Puspanjali G Block"
  },
  {
    "stop_id": 593,
    "stop_lat": 28.544217,
    "stop_lon": 77.065083,
    "stop_name": "Dwarka Road"
  },
  {
    "stop_id": 594,
    "stop_lat": 28.547567,
    "stop_lon": 77.057117,
    "stop_name": "Bharthal Under Pass"
  },
  {
    "stop_id": 595,
    "stop_lat": 28.5519186,
    "stop_lon": 77.0566312,
    "stop_name": "Dwarka Sec-21 Metro Station"
  },
  {
    "stop_id": 596,
    "stop_lat": 28.55411,
    "stop_lon": 77.05858,
    "stop_name": "Dwarka Sec-21 Crossing"
  },
  {
    "stop_id": 597,
    "stop_lat": 28.558065,
    "stop_lon": 77.061889,
    "stop_name": "Dwarka Sec 22 Vivanta Hotel"
  },
  {
    "stop_id": 598,
    "stop_lat": 28.5639249,
    "stop_lon": 77.0627421,
    "stop_name": "Dwarka Sec-20/21 Crossing"
  },
  {
    "stop_id": 599,
    "stop_lat": 28.56622,
    "stop_lon": 77.06691,
    "stop_name": "Dwarka Sec-8 Metro Station"
  },
  {
    "stop_id": 600,
    "stop_lat": 28.56294,
    "stop_lon": 77.07074,
    "stop_name": "Shahbad Mohammad Pur School"
  },
  {
    "stop_id": 601,
    "stop_lat": 28.559648,
    "stop_lon": 77.071398,
    "stop_name": "Shahbad Mohammad Pur Village"
  },
  {
    "stop_id": 602,
    "stop_lat": 28.56278,
    "stop_lon": 77.07072,
    "stop_name": "Shahbad Mohammad Pur School"
  },
  {
    "stop_id": 603,
    "stop_lat": 28.5675435,
    "stop_lon": 77.0666171,
    "stop_name": "Dwarka Sec-8 Metro Station"
  },
  {
    "stop_id": 604,
    "stop_lat": 28.56852,
    "stop_lon": 77.06788,
    "stop_name": "Dwarka Sec8"
  },
  {
    "stop_id": 605,
    "stop_lat": 28.57252,
    "stop_lon": 77.06916,
    "stop_name": "Bagdola Village"
  },
  {
    "stop_id": 606,
    "stop_lat": 28.5758,
    "stop_lon": 77.07134,
    "stop_name": "Dwarka Sec8 DTC Depot"
  },
  {
    "stop_id": 607,
    "stop_lat": 28.5765,
    "stop_lon": 77.07594,
    "stop_name": "National Malariya Research Centre (Dwarka)"
  },
  {
    "stop_id": 608,
    "stop_lat": 28.57818,
    "stop_lon": 77.07708,
    "stop_name": "Dada Dev Mandir"
  },
  {
    "stop_id": 609,
    "stop_lat": 28.57876,
    "stop_lon": 77.07616,
    "stop_name": "National Malariya Research Centre (Dwarka)"
  },
  {
    "stop_id": 610,
    "stop_lat": 28.5815,
    "stop_lon": 77.0703,
    "stop_name": "Royal Residency (Dwarka)"
  },
  {
    "stop_id": 611,
    "stop_lat": 28.58367,
    "stop_lon": 77.06701,
    "stop_name": "Munirka Flats (Dwarka)"
  },
  {
    "stop_id": 612,
    "stop_lat": 28.594499,
    "stop_lon": 77.073519,
    "stop_name": "Dwarka Sec 1"
  },
  {
    "stop_id": 613,
    "stop_lat": 28.59687,
    "stop_lon": 77.080944,
    "stop_name": "Sulabh International Centre"
  },
  {
    "stop_id": 614,
    "stop_lat": 28.60084,
    "stop_lon": 77.08199,
    "stop_name": "Mahaveer Enclave III"
  },
  {
    "stop_id": 615,
    "stop_lat": 28.60353,
    "stop_lon": 77.08266,
    "stop_name": "Dashrath Puri"
  },
  {
    "stop_id": 616,
    "stop_lat": 28.60654,
    "stop_lon": 77.08111,
    "stop_name": "Vijay Enclave (Palam-Dabri Road)"
  },
  {
    "stop_id": 617,
    "stop_lat": 28.608043,
    "stop_lon": 77.081954,
    "stop_name": "Dabri Village"
  },
  {
    "stop_id": 618,
    "stop_lat": 28.6128332543,
    "stop_lon": 77.0860911075,
    "stop_name": "Dabri Crossing Dwarka Road"
  },
  {
    "stop_id": 619,
    "stop_lat": 28.61446,
    "stop_lon": 77.086985,
    "stop_name": "C2D Janakpuri"
  },
  {
    "stop_id": 620,
    "stop_lat": 28.616659,
    "stop_lon": 77.087976,
    "stop_name": "C4E Janakpuri"
  },
  {
    "stop_id": 621,
    "stop_lat": 28.621222,
    "stop_lon": 77.088818,
    "stop_name": "C2B Janak Puri"
  },
  {
    "stop_id": 622,
    "stop_lat": 28.62235,
    "stop_lon": 77.09365,
    "stop_name": "Bharti College"
  },
  {
    "stop_id": 623,
    "stop_lat": 28.6232,
    "stop_lon": 77.09615,
    "stop_name": "Virender Nagar / Dilli Haat"
  },
  {
    "stop_id": 624,
    "stop_lat": 28.62541,
    "stop_lon": 77.10109,
    "stop_name": "Hari Nagar Depot"
  },
  {
    "stop_id": 625,
    "stop_lat": 28.627917,
    "stop_lon": 77.100067,
    "stop_name": "G Block Hari Nagar"
  },
  {
    "stop_id": 626,
    "stop_lat": 28.631133,
    "stop_lon": 77.098567,
    "stop_name": "Fateh Nagar"
  },
  {
    "stop_id": 627,
    "stop_lat": 28.635737,
    "stop_lon": 77.096692,
    "stop_name": "Tilak Nagar Jail Road"
  },
  {
    "stop_id": 628,
    "stop_lat": 28.635322,
    "stop_lon": 77.092959,
    "stop_name": "Tilak Nagar Crossing (Najafgarh Road)"
  },
  {
    "stop_id": 629,
    "stop_lat": 28.6338587549,
    "stop_lon": 77.0888298523,
    "stop_name": "Janak Puri Check Post"
  },
  {
    "stop_id": 630,
    "stop_lat": 28.632306,
    "stop_lon": 77.084585,
    "stop_name": "B2A Janakpuri"
  },
  {
    "stop_id": 631,
    "stop_lat": 28.630488,
    "stop_lon": 77.080047,
    "stop_name": "Janak Puri District Centre"
  },
  {
    "stop_id": 632,
    "stop_lat": 28.629119,
    "stop_lon": 77.076482,
    "stop_name": "Dholi Piao"
  },
  {
    "stop_id": 633,
    "stop_lat": 28.626449,
    "stop_lon": 77.06969,
    "stop_name": "Vikaspuri Crossing"
  },
  {
    "stop_id": 634,
    "stop_lat": 28.624597,
    "stop_lon": 77.06498,
    "stop_name": "Uttam Nagar Terminal"
  },
  {
    "stop_id": 635,
    "stop_lat": 28.5899833333,
    "stop_lon": 77.0870166667,
    "stop_name": "Mangla Puri Terminal"
  },
  {
    "stop_id": 636,
    "stop_lat": 28.591,
    "stop_lon": 77.0814,
    "stop_name": "Health Centre"
  },
  {
    "stop_id": 637,
    "stop_lat": 28.592833,
    "stop_lon": 77.079486,
    "stop_name": "Dwarka Crossing / Maharaja Agrasen Hospital"
  },
  {
    "stop_id": 638,
    "stop_lat": 28.594283,
    "stop_lon": 77.073867,
    "stop_name": "Dwarka Sec 1"
  },
  {
    "stop_id": 639,
    "stop_lat": 28.595421,
    "stop_lon": 77.070134,
    "stop_name": "J M International School"
  },
  {
    "stop_id": 640,
    "stop_lat": 28.597335,
    "stop_lon": 77.064944,
    "stop_name": "Dwarka Sec 2-6"
  },
  {
    "stop_id": 641,
    "stop_lat": 28.599779,
    "stop_lon": 77.061168,
    "stop_name": "Madhu Vihar"
  },
  {
    "stop_id": 642,
    "stop_lat": 28.6038,
    "stop_lon": 77.0551,
    "stop_name": "Rajapuri"
  },
  {
    "stop_id": 643,
    "stop_lat": 28.605032,
    "stop_lon": 77.051737,
    "stop_name": "Matiyala Xing"
  },
  {
    "stop_id": 644,
    "stop_lat": 28.604518,
    "stop_lon": 77.046323,
    "stop_name": "DPS Matiyala"
  },
  {
    "stop_id": 645,
    "stop_lat": 28.602648,
    "stop_lon": 77.043175,
    "stop_name": "Dwarka Sec 3-4"
  },
  {
    "stop_id": 646,
    "stop_lat": 28.602551,
    "stop_lon": 77.040932,
    "stop_name": "Dwarka Sec 13-3 Xing"
  },
  {
    "stop_id": 647,
    "stop_lat": 28.603988,
    "stop_lon": 77.038876,
    "stop_name": "MRV School Sec 13 Dwarka"
  },
  {
    "stop_id": 648,
    "stop_lat": 28.605684,
    "stop_lon": 77.036274,
    "stop_name": "Dwarka Sec 13"
  },
  {
    "stop_id": 649,
    "stop_lat": 28.607416,
    "stop_lon": 77.035099,
    "stop_name": "NSIT (Netaji Subhas Institute) / Sulahkul Mandir"
  },
  {
    "stop_id": 650,
    "stop_lat": 28.610723,
    "stop_lon": 77.034031,
    "stop_name": "Suraj Vihar"
  },
  {
    "stop_id": 651,
    "stop_lat": 28.6189259761,
    "stop_lon": 77.0295846257,
    "stop_name": "Kakrola More"
  },
  {
    "stop_id": 652,
    "stop_lat": 28.619809,
    "stop_lon": 77.024876,
    "stop_name": "Kakrola Bridge"
  },
  {
    "stop_id": 653,
    "stop_lat": 28.6197008886,
    "stop_lon": 77.0176653845,
    "stop_name": "Nangli Dairy"
  },
  {
    "stop_id": 654,
    "stop_lat": 28.618803,
    "stop_lon": 77.015219,
    "stop_name": "Chhathh Ghat Park"
  },
  {
    "stop_id": 655,
    "stop_lat": 28.618083,
    "stop_lon": 77.013083,
    "stop_name": "Arjun Park"
  },
  {
    "stop_id": 656,
    "stop_lat": 28.616257558,
    "stop_lon": 77.0080117622,
    "stop_name": "Nangli Sakrawati Crossing"
  },
  {
    "stop_id": 657,
    "stop_lat": 28.6146300895,
    "stop_lon": 77.0039039906,
    "stop_name": "Nangli Sakrawati"
  },
  {
    "stop_id": 658,
    "stop_lat": 28.613536,
    "stop_lon": 76.999497,
    "stop_name": "Sai Baba Mandir"
  },
  {
    "stop_id": 659,
    "stop_lat": 28.612929,
    "stop_lon": 76.995552,
    "stop_name": "Power House NajafGarh"
  },
  {
    "stop_id": 660,
    "stop_lat": 28.612509096,
    "stop_lon": 76.9923600179,
    "stop_name": "Tuda Mandi"
  },
  {
    "stop_id": 661,
    "stop_lat": 28.586388,
    "stop_lon": 77.253259,
    "stop_name": "Nizamuddin Railway Station"
  },
  {
    "stop_id": 662,
    "stop_lat": 28.5825,
    "stop_lon": 77.2527,
    "stop_name": "Rajdoot Hotel"
  },
  {
    "stop_id": 663,
    "stop_lat": 28.57449,
    "stop_lon": 77.256841,
    "stop_name": "Ashram (Hari Nagar)"
  },
  {
    "stop_id": 664,
    "stop_lat": 28.56675,
    "stop_lon": 77.253117,
    "stop_name": "Sri Niwaspuri / PG DAV College Lajpat Nagar"
  },
  {
    "stop_id": 665,
    "stop_lat": 28.51529,
    "stop_lon": 77.281062,
    "stop_name": "ESI Hospital Okhla"
  },
  {
    "stop_id": 666,
    "stop_lat": 28.5164,
    "stop_lon": 77.2835,
    "stop_name": "Central Work Shop II"
  },
  {
    "stop_id": 667,
    "stop_lat": 28.5187039,
    "stop_lon": 77.2851174,
    "stop_name": "Okhla Depot IV CWS II"
  },
  {
    "stop_id": 668,
    "stop_lat": 28.66696,
    "stop_lon": 77.227456,
    "stop_name": "ISBT Kashmere Gate Terminal"
  },
  {
    "stop_id": 669,
    "stop_lat": 28.666662,
    "stop_lon": 77.21926,
    "stop_name": "Tees Hazari Court"
  },
  {
    "stop_id": 670,
    "stop_lat": 28.6671,
    "stop_lon": 77.2149,
    "stop_name": "St Stephen Hospital"
  },
  {
    "stop_id": 671,
    "stop_lat": 28.666336,
    "stop_lon": 77.208872,
    "stop_name": "Ice Factory (Rani Jhansi Road)"
  },
  {
    "stop_id": 672,
    "stop_lat": 28.669035,
    "stop_lon": 77.204663,
    "stop_name": "Roshnara Road"
  },
  {
    "stop_id": 673,
    "stop_lat": 28.6717,
    "stop_lon": 77.2007,
    "stop_name": "Roshnara Bagh"
  },
  {
    "stop_id": 674,
    "stop_lat": 28.6774,
    "stop_lon": 77.201633,
    "stop_name": "Clock Tower"
  },
  {
    "stop_id": 675,
    "stop_lat": 28.6804,
    "stop_lon": 77.1993,
    "stop_name": "Shakti Nagar"
  },
  {
    "stop_id": 676,
    "stop_lat": 28.679846,
    "stop_lon": 77.195746,
    "stop_name": "Shakti Nagar Nangia Park"
  },
  {
    "stop_id": 677,
    "stop_lat": 28.677233,
    "stop_lon": 77.188967,
    "stop_name": "Chowki No 2 / Gulabi Bagh Crossing"
  },
  {
    "stop_id": 678,
    "stop_lat": 28.674998,
    "stop_lon": 77.188525,
    "stop_name": "Gulabi Bagh"
  },
  {
    "stop_id": 679,
    "stop_lat": 28.672401,
    "stop_lon": 77.186038,
    "stop_name": "Shastri Nagar A Block"
  },
  {
    "stop_id": 680,
    "stop_lat": 28.671105,
    "stop_lon": 77.184219,
    "stop_name": "Subhadra Colony"
  },
  {
    "stop_id": 681,
    "stop_lat": 28.669997,
    "stop_lon": 77.181336,
    "stop_name": "Shastri Nagar Metro Station"
  },
  {
    "stop_id": 682,
    "stop_lat": 28.6711,
    "stop_lon": 77.17605,
    "stop_name": "Shastri Nagar E Block"
  },
  {
    "stop_id": 683,
    "stop_lat": 28.6716,
    "stop_lon": 77.173,
    "stop_name": "Shastri Nagar Shiv Mandir"
  },
  {
    "stop_id": 684,
    "stop_lat": 28.673633,
    "stop_lon": 77.168983,
    "stop_name": "Inderlok Metro Station"
  },
  {
    "stop_id": 685,
    "stop_lat": 28.680933,
    "stop_lon": 77.165433,
    "stop_name": "Kanhaiya Nagar"
  },
  {
    "stop_id": 686,
    "stop_lat": 28.6861,
    "stop_lon": 77.1629,
    "stop_name": "B3 Keshav Puram"
  },
  {
    "stop_id": 687,
    "stop_lat": 28.687583,
    "stop_lon": 77.162267,
    "stop_name": "B-4 Keshav Puram"
  },
  {
    "stop_id": 689,
    "stop_lat": 28.694632,
    "stop_lon": 77.105225,
    "stop_name": "Mangol Pur School (Kanjhawla Road)"
  },
  {
    "stop_id": 690,
    "stop_lat": 28.698239,
    "stop_lon": 77.097085,
    "stop_name": "Avantika Xing"
  },
  {
    "stop_id": 692,
    "stop_lat": 28.7155,
    "stop_lon": 77.0743,
    "stop_name": "Rohini Sec 20/21 More"
  },
  {
    "stop_id": 693,
    "stop_lat": 28.665305,
    "stop_lon": 76.943439,
    "stop_name": "Satyapuram Jharoda"
  },
  {
    "stop_id": 694,
    "stop_lat": 28.6586,
    "stop_lon": 76.9479,
    "stop_name": "Jharoda Nala Crossing"
  },
  {
    "stop_id": 695,
    "stop_lat": 28.655083,
    "stop_lon": 76.950083,
    "stop_name": "Jharoda Kalan"
  },
  {
    "stop_id": 696,
    "stop_lat": 28.65085,
    "stop_lon": 76.9531,
    "stop_name": "Jharoda Village"
  },
  {
    "stop_id": 697,
    "stop_lat": 28.646688,
    "stop_lon": 76.956119,
    "stop_name": "S.S. Kanya Vidhyalaya"
  },
  {
    "stop_id": 698,
    "stop_lat": 28.642863,
    "stop_lon": 76.958365,
    "stop_name": "PTS Jharoda"
  },
  {
    "stop_id": 699,
    "stop_lat": 28.638805,
    "stop_lon": 76.960707,
    "stop_name": "CRPF Jharoda"
  },
  {
    "stop_id": 700,
    "stop_lat": 28.633583,
    "stop_lon": 76.963783,
    "stop_name": "Sainik Enclave Jharoda"
  },
  {
    "stop_id": 701,
    "stop_lat": 28.63045,
    "stop_lon": 76.965683,
    "stop_name": "Saraswati Kunj Jharoda"
  },
  {
    "stop_id": 702,
    "stop_lat": 28.627867,
    "stop_lon": 76.967333,
    "stop_name": "Naveen Palace"
  },
  {
    "stop_id": 703,
    "stop_lat": 28.623817,
    "stop_lon": 76.970483,
    "stop_name": "Baba Haridass Nagar"
  },
  {
    "stop_id": 704,
    "stop_lat": 28.619058,
    "stop_lon": 76.974408,
    "stop_name": "New Anaj Mandi"
  },
  {
    "stop_id": 705,
    "stop_lat": 28.6155,
    "stop_lon": 76.976417,
    "stop_name": "Surakh Pur Crossing"
  },
  {
    "stop_id": 706,
    "stop_lat": 28.626011,
    "stop_lon": 77.068195,
    "stop_name": "Uttam Nagar"
  },
  {
    "stop_id": 707,
    "stop_lat": 28.619633,
    "stop_lon": 77.079183,
    "stop_name": "A-3 Janak Puri"
  },
  {
    "stop_id": 708,
    "stop_lat": 28.6219,
    "stop_lon": 77.0842,
    "stop_name": "C-2 Janakpuri"
  },
  {
    "stop_id": 709,
    "stop_lat": 28.621752,
    "stop_lon": 77.092199,
    "stop_name": "Bharti College / C2B Janak Puri"
  },
  {
    "stop_id": 710,
    "stop_lat": 28.617217,
    "stop_lon": 77.088345,
    "stop_name": "C4E Janakpuri"
  },
  {
    "stop_id": 711,
    "stop_lat": 28.615417,
    "stop_lon": 77.092583,
    "stop_name": "Central Market C3 Janakpuri"
  },
  {
    "stop_id": 712,
    "stop_lat": 28.616333,
    "stop_lon": 77.09525,
    "stop_name": "C-4H Janakpuri"
  },
  {
    "stop_id": 713,
    "stop_lat": 28.6148,
    "stop_lon": 77.0977,
    "stop_name": "Janakpuri C-5A"
  },
  {
    "stop_id": 714,
    "stop_lat": 28.6109508,
    "stop_lon": 77.0989138,
    "stop_name": "Desu Colony Janakpuri"
  },
  {
    "stop_id": 715,
    "stop_lat": 28.6182233,
    "stop_lon": 77.1121149,
    "stop_name": "Zunk Market"
  },
  {
    "stop_id": 716,
    "stop_lat": 28.622267,
    "stop_lon": 77.1171,
    "stop_name": "Gulab House"
  },
  {
    "stop_id": 717,
    "stop_lat": 28.62395,
    "stop_lon": 77.1186,
    "stop_name": "Bobby Soap"
  },
  {
    "stop_id": 718,
    "stop_lat": 28.625367,
    "stop_lon": 77.11975,
    "stop_name": "PS Mayapuri"
  },
  {
    "stop_id": 719,
    "stop_lat": 28.629,
    "stop_lon": 77.122817,
    "stop_name": "Metal Forging"
  },
  {
    "stop_id": 720,
    "stop_lat": 28.634617,
    "stop_lon": 77.127633,
    "stop_name": "Government Press"
  },
  {
    "stop_id": 721,
    "stop_lat": 28.63685,
    "stop_lon": 77.12835,
    "stop_name": "Mayapuri Depot"
  },
  {
    "stop_id": 722,
    "stop_lat": 28.626883,
    "stop_lon": 77.135333,
    "stop_name": "Naraina Vihar / Indra Market"
  },
  {
    "stop_id": 723,
    "stop_lat": 28.6314,
    "stop_lon": 77.1384,
    "stop_name": "Payal Cinema"
  },
  {
    "stop_id": 724,
    "stop_lat": 28.641383,
    "stop_lon": 77.145217,
    "stop_name": "Loha Mandi"
  },
  {
    "stop_id": 725,
    "stop_lat": 28.644717,
    "stop_lon": 77.147667,
    "stop_name": "Bentax"
  },
  {
    "stop_id": 726,
    "stop_lat": 28.64905,
    "stop_lon": 77.1513,
    "stop_name": "Naraina Depot"
  },
  {
    "stop_id": 727,
    "stop_lat": 28.650051,
    "stop_lon": 77.153678,
    "stop_name": "Pandav Nagar"
  },
  {
    "stop_id": 728,
    "stop_lat": 28.6516,
    "stop_lon": 77.1561,
    "stop_name": "Shadipur Colony"
  },
  {
    "stop_id": 729,
    "stop_lat": 28.6515,
    "stop_lon": 77.1587,
    "stop_name": "Shadipur Metro Station"
  },
  {
    "stop_id": 730,
    "stop_lat": 28.64795,
    "stop_lon": 77.164783,
    "stop_name": "West Patel Nagar"
  },
  {
    "stop_id": 731,
    "stop_lat": 28.6454,
    "stop_lon": 77.1689,
    "stop_name": "South Patel Nagar (Metro Station)"
  },
  {
    "stop_id": 732,
    "stop_lat": 28.642967,
    "stop_lon": 77.17315,
    "stop_name": "East Patel Nagar"
  },
  {
    "stop_id": 733,
    "stop_lat": 28.6425,
    "stop_lon": 77.1773,
    "stop_name": "Rajendra Place"
  },
  {
    "stop_id": 734,
    "stop_lat": 28.64315,
    "stop_lon": 77.181917,
    "stop_name": "Telephone Exchange Karol Bagh"
  },
  {
    "stop_id": 735,
    "stop_lat": 28.6442,
    "stop_lon": 77.189,
    "stop_name": "Karol Bagh Metro Station"
  },
  {
    "stop_id": 736,
    "stop_lat": 28.6448,
    "stop_lon": 77.1934,
    "stop_name": "Pusa Road Petrol Pump Sadhu Vaswani Marg"
  },
  {
    "stop_id": 737,
    "stop_lat": 28.644,
    "stop_lon": 77.200983,
    "stop_name": "Meghdoot Bhawan"
  },
  {
    "stop_id": 738,
    "stop_lat": 28.6441,
    "stop_lon": 77.2036,
    "stop_name": "Videocon Tower"
  },
  {
    "stop_id": 739,
    "stop_lat": 28.646179,
    "stop_lon": 77.208232,
    "stop_name": "Paharganj Police Station"
  },
  {
    "stop_id": 740,
    "stop_lat": 28.6452,
    "stop_lon": 77.2133,
    "stop_name": "Dispensary Paharganj"
  },
  {
    "stop_id": 741,
    "stop_lat": 28.643383,
    "stop_lon": 77.225733,
    "stop_name": "Ajmeri Gate / Kamla Market"
  },
  {
    "stop_id": 742,
    "stop_lat": 28.642068,
    "stop_lon": 77.228325,
    "stop_name": "JLN Marg"
  },
  {
    "stop_id": 743,
    "stop_lat": 28.641166,
    "stop_lon": 77.230002,
    "stop_name": "Zakir Husain College"
  },
  {
    "stop_id": 744,
    "stop_lat": 28.641834,
    "stop_lon": 77.233136,
    "stop_name": "Turkman Gate / GB Pant Hospital"
  },
  {
    "stop_id": 745,
    "stop_lat": 28.6412,
    "stop_lon": 77.235016,
    "stop_name": "Delite Cinema"
  },
  {
    "stop_id": 746,
    "stop_lat": 28.64073,
    "stop_lon": 77.238584,
    "stop_name": "Delhi Gate"
  },
  {
    "stop_id": 747,
    "stop_lat": 28.653961,
    "stop_lon": 77.23645,
    "stop_name": "Red Fort"
  },
  {
    "stop_id": 748,
    "stop_lat": 28.661944,
    "stop_lon": 77.234569,
    "stop_name": "GPO"
  },
  {
    "stop_id": 749,
    "stop_lat": 28.665331,
    "stop_lon": 77.230123,
    "stop_name": "Guru Govind Singh University (Kashmere Gate)"
  },
  {
    "stop_id": 750,
    "stop_lat": 28.666756,
    "stop_lon": 77.229348,
    "stop_name": "ISBT Kashmere Gate"
  },
  {
    "stop_id": 751,
    "stop_lat": 28.666517,
    "stop_lon": 77.225883,
    "stop_name": "Mori Gate Terminal"
  },
  {
    "stop_id": 752,
    "stop_lat": 28.7950053614,
    "stop_lon": 77.0411360467,
    "stop_name": "Bawana Sec 1 Cluster Depot"
  },
  {
    "stop_id": 755,
    "stop_lat": 28.815521,
    "stop_lon": 77.058038,
    "stop_name": "Delhi Jal Board Bawana"
  },
  {
    "stop_id": 756,
    "stop_lat": 28.819594,
    "stop_lon": 77.063606,
    "stop_name": "Sannoth Crossing / Ghoga Crossing"
  },
  {
    "stop_id": 757,
    "stop_lat": 28.81561,
    "stop_lon": 77.07098,
    "stop_name": "Sannoth Village"
  },
  {
    "stop_id": 758,
    "stop_lat": 28.809729,
    "stop_lon": 77.087395,
    "stop_name": "Holambi Kalan JJ Colony"
  },
  {
    "stop_id": 760,
    "stop_lat": 28.809357,
    "stop_lon": 77.10746,
    "stop_name": "Holambi Kalan Crossing"
  },
  {
    "stop_id": 761,
    "stop_lat": 28.800239,
    "stop_lon": 77.114663,
    "stop_name": "Jeet Farm"
  },
  {
    "stop_id": 762,
    "stop_lat": 28.797139,
    "stop_lon": 77.117385,
    "stop_name": "Holambi Khurd Crossing"
  },
  {
    "stop_id": 763,
    "stop_lat": 28.79804,
    "stop_lon": 77.127346,
    "stop_name": "Alipur Garhi"
  },
  {
    "stop_id": 764,
    "stop_lat": 28.797253,
    "stop_lon": 77.133138,
    "stop_name": "Alipur Village"
  },
  {
    "stop_id": 765,
    "stop_lat": 28.8022,
    "stop_lon": 77.1386,
    "stop_name": "Pwd Office"
  },
  {
    "stop_id": 766,
    "stop_lat": 28.811931,
    "stop_lon": 77.135652,
    "stop_name": "Bakauli Village"
  },
  {
    "stop_id": 767,
    "stop_lat": 28.824805,
    "stop_lon": 77.13183,
    "stop_name": "Khampur Village"
  },
  {
    "stop_id": 768,
    "stop_lat": 28.835211,
    "stop_lon": 77.12846,
    "stop_name": "Tikri Khurd Crossing"
  },
  {
    "stop_id": 769,
    "stop_lat": 28.835878,
    "stop_lon": 77.1238,
    "stop_name": "Tikri Khurd"
  },
  {
    "stop_id": 770,
    "stop_lat": 28.646328,
    "stop_lon": 77.314904,
    "stop_name": "Anand Vihar ISBT Terminal"
  },
  {
    "stop_id": 771,
    "stop_lat": 28.660523,
    "stop_lon": 77.319926,
    "stop_name": "Ram Prastha Crossing"
  },
  {
    "stop_id": 772,
    "stop_lat": 28.663552,
    "stop_lon": 77.320362,
    "stop_name": "Ram Prastha Temple"
  },
  {
    "stop_id": 773,
    "stop_lat": 28.666954,
    "stop_lon": 77.321483,
    "stop_name": "Surya Nagar (Gazipur Road)"
  },
  {
    "stop_id": 774,
    "stop_lat": 28.676241,
    "stop_lon": 77.321331,
    "stop_name": "Shahdara Border GT Road"
  },
  {
    "stop_id": 775,
    "stop_lat": 28.676186,
    "stop_lon": 77.317518,
    "stop_name": "Jhilmil Xing"
  },
  {
    "stop_id": 776,
    "stop_lat": 28.675883,
    "stop_lon": 77.3118,
    "stop_name": "Dilshad Garden GT Road"
  },
  {
    "stop_id": 777,
    "stop_lat": 28.675817,
    "stop_lon": 77.309217,
    "stop_name": "Telephone Exchange"
  },
  {
    "stop_id": 778,
    "stop_lat": 28.675479,
    "stop_lon": 77.300119,
    "stop_name": "Mansarovar Park Metro Station"
  },
  {
    "stop_id": 779,
    "stop_lat": 28.672,
    "stop_lon": 77.275,
    "stop_name": "Welcome Colony Metro Station"
  },
  {
    "stop_id": 780,
    "stop_lat": 28.671798805,
    "stop_lon": 77.2733799558,
    "stop_name": "Welcome Colony"
  },
  {
    "stop_id": 781,
    "stop_lat": 28.670722,
    "stop_lon": 77.266485,
    "stop_name": "Seelampur Metro Station"
  },
  {
    "stop_id": 782,
    "stop_lat": 28.670717,
    "stop_lon": 77.261917,
    "stop_name": "Dharam Pura"
  },
  {
    "stop_id": 783,
    "stop_lat": 28.6723,
    "stop_lon": 77.2571,
    "stop_name": "Shastri Park"
  },
  {
    "stop_id": 784,
    "stop_lat": 28.673195,
    "stop_lon": 77.251804,
    "stop_name": "Shastri Park"
  },
  {
    "stop_id": 785,
    "stop_lat": 28.67382,
    "stop_lon": 77.248024,
    "stop_name": "Shyam Giri Mandir"
  },
  {
    "stop_id": 786,
    "stop_lat": 28.674167,
    "stop_lon": 77.243433,
    "stop_name": "Shastri Park DMRC Depot"
  },
  {
    "stop_id": 787,
    "stop_lat": 28.673433,
    "stop_lon": 77.241183,
    "stop_name": "Shastri Park Metro Depot"
  },
  {
    "stop_id": 788,
    "stop_lat": 28.6692301,
    "stop_lon": 77.228774,
    "stop_name": "ISBT Bridge"
  },
  {
    "stop_id": 789,
    "stop_lat": 28.6627,
    "stop_lon": 77.2075,
    "stop_name": "Azad Market"
  },
  {
    "stop_id": 790,
    "stop_lat": 28.660752,
    "stop_lon": 77.204049,
    "stop_name": "Bara Hindu Rao"
  },
  {
    "stop_id": 791,
    "stop_lat": 28.657229,
    "stop_lon": 77.203685,
    "stop_name": "Model Basti"
  },
  {
    "stop_id": 792,
    "stop_lat": 28.655331,
    "stop_lon": 77.198831,
    "stop_name": "Guru Govind Singh Marg"
  },
  {
    "stop_id": 793,
    "stop_lat": 28.65754,
    "stop_lon": 77.194648,
    "stop_name": "Tibiya College"
  },
  {
    "stop_id": 794,
    "stop_lat": 28.659086,
    "stop_lon": 77.191154,
    "stop_name": "Ram Jas Road"
  },
  {
    "stop_id": 795,
    "stop_lat": 28.659825,
    "stop_lon": 77.188866,
    "stop_name": "Liberty Cinema"
  },
  {
    "stop_id": 796,
    "stop_lat": 28.661182,
    "stop_lon": 77.185019,
    "stop_name": "Sarai Rohilla Govt Qtrs (Rohtak Road)"
  },
  {
    "stop_id": 797,
    "stop_lat": 28.662538,
    "stop_lon": 77.182083,
    "stop_name": "Sarai Rohila (Rohtak Road)"
  },
  {
    "stop_id": 798,
    "stop_lat": 28.665198,
    "stop_lon": 77.174292,
    "stop_name": "Anand Parvat Industrial Area"
  },
  {
    "stop_id": 799,
    "stop_lat": 28.666349,
    "stop_lon": 77.170126,
    "stop_name": "Daya Basti Flyover"
  },
  {
    "stop_id": 800,
    "stop_lat": 28.668391,
    "stop_lon": 77.165402,
    "stop_name": "Zakhira Flyover"
  },
  {
    "stop_id": 801,
    "stop_lat": 28.671287,
    "stop_lon": 77.156585,
    "stop_name": "Ashok Park Main"
  },
  {
    "stop_id": 802,
    "stop_lat": 28.671806,
    "stop_lon": 77.15387,
    "stop_name": "Ram Pura"
  },
  {
    "stop_id": 803,
    "stop_lat": 28.672782,
    "stop_lon": 77.146897,
    "stop_name": "Punjabi Bagh West Power House"
  },
  {
    "stop_id": 804,
    "stop_lat": 28.673121,
    "stop_lon": 77.143689,
    "stop_name": "Punjabi Bagh Terminal (Rohtak Road)"
  },
  {
    "stop_id": 805,
    "stop_lat": 28.702199,
    "stop_lon": 77.278463,
    "stop_name": "C 4 Yamuna Vihar"
  },
  {
    "stop_id": 806,
    "stop_lat": 28.702588,
    "stop_lon": 77.273744,
    "stop_name": "Yamuna Vihar Brijpuri"
  },
  {
    "stop_id": 807,
    "stop_lat": 28.702752,
    "stop_lon": 77.271309,
    "stop_name": "B-Block Yamuna Vihar"
  },
  {
    "stop_id": 808,
    "stop_lat": 28.703351,
    "stop_lon": 77.263706,
    "stop_name": "Bhajanpura"
  },
  {
    "stop_id": 809,
    "stop_lat": 28.7039,
    "stop_lon": 77.2562,
    "stop_name": "Khajuri"
  },
  {
    "stop_id": 810,
    "stop_lat": 28.6992,
    "stop_lon": 77.255533,
    "stop_name": "Garhi Maidu"
  },
  {
    "stop_id": 811,
    "stop_lat": 28.695121,
    "stop_lon": 77.254951,
    "stop_name": "Gamri Extn Pusta No.5"
  },
  {
    "stop_id": 812,
    "stop_lat": 28.68945,
    "stop_lon": 77.254167,
    "stop_name": "Kartar Nagar"
  },
  {
    "stop_id": 813,
    "stop_lat": 28.686317,
    "stop_lon": 77.254567,
    "stop_name": "Jagjit Nagar"
  },
  {
    "stop_id": 814,
    "stop_lat": 28.683767,
    "stop_lon": 77.255217,
    "stop_name": "Pusta No-2"
  },
  {
    "stop_id": 815,
    "stop_lat": 28.679983,
    "stop_lon": 77.256183,
    "stop_name": "New Usman Pur Pusta No-1"
  },
  {
    "stop_id": 816,
    "stop_lat": 28.6778,
    "stop_lon": 77.256783,
    "stop_name": "Zero Pusta"
  },
  {
    "stop_id": 817,
    "stop_lat": 28.674017,
    "stop_lon": 77.2563,
    "stop_name": "Shastri Park Pusta Road"
  },
  {
    "stop_id": 818,
    "stop_lat": 28.672284,
    "stop_lon": 77.225834,
    "stop_name": "Ludlow Castle"
  },
  {
    "stop_id": 819,
    "stop_lat": 28.676749,
    "stop_lon": 77.224848,
    "stop_name": "Exchange Store / Civil Lines Metro Station"
  },
  {
    "stop_id": 820,
    "stop_lat": 28.67961,
    "stop_lon": 77.22396,
    "stop_name": "IP College"
  },
  {
    "stop_id": 821,
    "stop_lat": 28.683783,
    "stop_lon": 77.222172,
    "stop_name": "Old Secretariat (Postal Account Office)"
  },
  {
    "stop_id": 822,
    "stop_lat": 28.687802,
    "stop_lon": 77.221442,
    "stop_name": "Vidhan Sabha Metro Station"
  },
  {
    "stop_id": 823,
    "stop_lat": 28.690613,
    "stop_lon": 77.221168,
    "stop_name": "Khyber Pass"
  },
  {
    "stop_id": 824,
    "stop_lat": 28.693646,
    "stop_lon": 77.218432,
    "stop_name": "Mall Road"
  },
  {
    "stop_id": 825,
    "stop_lat": 28.695213,
    "stop_lon": 77.214096,
    "stop_name": "Vishwa Vidyalaya Metro Station"
  },
  {
    "stop_id": 826,
    "stop_lat": 28.696149,
    "stop_lon": 77.211705,
    "stop_name": "INS Hostel"
  },
  {
    "stop_id": 827,
    "stop_lat": 28.698223,
    "stop_lon": 77.207504,
    "stop_name": "GTB Nagar / Haqiqat Nagar"
  },
  {
    "stop_id": 829,
    "stop_lat": 28.638657,
    "stop_lon": 77.224181,
    "stop_name": "Shivaji Park"
  },
  {
    "stop_id": 830,
    "stop_lat": 28.632651,
    "stop_lon": 77.223088,
    "stop_name": "Super Bazar"
  },
  {
    "stop_id": 831,
    "stop_lat": 28.628567,
    "stop_lon": 77.216783,
    "stop_name": "Palika Kendra"
  },
  {
    "stop_id": 832,
    "stop_lat": 28.625507,
    "stop_lon": 77.21432,
    "stop_name": "P S Parliament / Jantar Mantar"
  },
  {
    "stop_id": 833,
    "stop_lat": 28.620515,
    "stop_lon": 77.212714,
    "stop_name": "Aakashwani Bhawan"
  },
  {
    "stop_id": 834,
    "stop_lat": 28.615,
    "stop_lon": 77.2124,
    "stop_name": "Krishi Bhawan"
  },
  {
    "stop_id": 835,
    "stop_lat": 28.6126,
    "stop_lon": 77.2122,
    "stop_name": "Udyog Bhawan"
  },
  {
    "stop_id": 836,
    "stop_lat": 28.609631,
    "stop_lon": 77.209798,
    "stop_name": "Sunehri Masjid/ G Block"
  },
  {
    "stop_id": 837,
    "stop_lat": 28.6051,
    "stop_lon": 77.2111,
    "stop_name": "Krishan Menon Marg"
  },
  {
    "stop_id": 838,
    "stop_lat": 28.599917,
    "stop_lon": 77.211317,
    "stop_name": "PS Tuglak Road"
  },
  {
    "stop_id": 839,
    "stop_lat": 28.5949,
    "stop_lon": 77.212,
    "stop_name": "Tughlaq Crescent"
  },
  {
    "stop_id": 840,
    "stop_lat": 28.586708,
    "stop_lon": 77.212779,
    "stop_name": "SJ Madrasa"
  },
  {
    "stop_id": 841,
    "stop_lat": 28.584236,
    "stop_lon": 77.212605,
    "stop_name": "SJ Airport"
  },
  {
    "stop_id": 842,
    "stop_lat": 28.5759,
    "stop_lon": 77.2102,
    "stop_name": "INA Colony"
  },
  {
    "stop_id": 843,
    "stop_lat": 28.574012,
    "stop_lon": 77.209568,
    "stop_name": "Kidwai Nagar"
  },
  {
    "stop_id": 844,
    "stop_lat": 28.566983,
    "stop_lon": 77.20795,
    "stop_name": "AIIMS"
  },
  {
    "stop_id": 845,
    "stop_lat": 28.5627,
    "stop_lon": 77.2077,
    "stop_name": "Yusuf Sarai"
  },
  {
    "stop_id": 846,
    "stop_lat": 28.5572,
    "stop_lon": 77.2068,
    "stop_name": "Green Park"
  },
  {
    "stop_id": 847,
    "stop_lat": 28.5529,
    "stop_lon": 77.2051,
    "stop_name": "Hauz Khas"
  },
  {
    "stop_id": 848,
    "stop_lat": 28.5498,
    "stop_lon": 77.2038,
    "stop_name": "Padhmini Enclave"
  },
  {
    "stop_id": 849,
    "stop_lat": 28.5462,
    "stop_lon": 77.2025,
    "stop_name": "IIT Gate"
  },
  {
    "stop_id": 850,
    "stop_lat": 28.543924,
    "stop_lon": 77.205014,
    "stop_name": "Panchsheel Club / Sarvpriya Vihar"
  },
  {
    "stop_id": 851,
    "stop_lat": 28.5428,
    "stop_lon": 77.209567,
    "stop_name": "Bhavishya Nidhi Enclave"
  },
  {
    "stop_id": 852,
    "stop_lat": 28.5370086315,
    "stop_lon": 77.2098981837,
    "stop_name": "Begumpur (Malviya Nagar)"
  },
  {
    "stop_id": 853,
    "stop_lat": 28.535406,
    "stop_lon": 77.208553,
    "stop_name": "Malviya Nagar"
  },
  {
    "stop_id": 854,
    "stop_lat": 28.5326,
    "stop_lon": 77.2046,
    "stop_name": "Aurobindo College"
  },
  {
    "stop_id": 855,
    "stop_lat": 28.530317,
    "stop_lon": 77.199633,
    "stop_name": "Geetanjali Enclave"
  },
  {
    "stop_id": 856,
    "stop_lat": 28.529417,
    "stop_lon": 77.2014,
    "stop_name": "PNB Geetanjali"
  },
  {
    "stop_id": 857,
    "stop_lat": 28.528,
    "stop_lon": 77.205,
    "stop_name": "Saket A Block (Malviya Nagar Metro Station)"
  },